countrynum,statenum,Route,RouteName,Active,Latitude,Longitude,Stratum,BCR,LandTypeID,RouteTypeID,RouteTypeDetailId
840,02,001,ST FLORIAN,1,34.8686880,-87.6041417,14,27,0,1,1
840,02,002,HILLSBORO,0,34.6386747,-87.1912919,14,24,0,1,1
840,02,003,FLORENCE,0,34.8000000,-87.7333333,14,24,0,1,1
840,02,004,TRADE,1,34.0297881,-87.0592352,13,28,0,1,1
840,02,005,SUMMITT,0,34.2016687,-86.4934089,13,28,0,1,1
840,02,006,VALHERMOSO SPGS,1,34.5012877,-86.6855493,14,24,0,1,1
840,02,007,SWAIM,1,34.8680404,-86.2030371,14,24,0,1,1
840,02,008,PINE GROVE,1,34.0278089,-85.7110414,13,28,0,1,1
840,02,009,DAWSON,0,34.3039507,-85.9267589,13,28,0,1,1
840,02,010,MILLERVILLE,1,33.1913463,-85.9258408,11,29,0,1,1
840,02,011,DEARMANVILLE,0,33.6257237,-85.7518379,13,28,0,1,1
840,02,012,SUNNY EVE,1,33.6076572,-85.7511714,13,28,0,1,1
840,02,013,GREENSPORT,1,33.8116977,-86.1153789,13,28,0,1,1
840,02,014,SMYER LAKE,1,33.4549551,-86.6010915,13,28,0,1,1
840,02,015,MT OLIVE,1,33.6822947,-86.8721632,13,28,0,1,1
840,02,016,HOWARD,1,33.8481773,-87.5888357,13,27,0,1,1
840,02,017,MAYTOWN,1,33.5263185,-87.0044623,13,28,0,1,1
840,02,018,MARVEL,0,33.1500000,-87.0000000,4,28,0,1,1
840,02,019,LIBERTY,1,33.4765537,-88.1712189,4,27,0,1,1
840,02,020,RIDERWOOD,1,32.1307226,-88.3172665,4,27,0,1,1
840,02,021,LINDEN,1,32.2782397,-87.8359539,4,27,0,1,1
840,02,022,HARRELL,1,32.4427150,-87.2158334,4,27,0,1,1
840,02,023,GREENSBORO,1,32.7846996,-87.5153953,4,27,0,1,1
840,02,024,SPRAGUE,1,32.1312407,-86.2754989,4,27,0,1,1
840,02,025,BILLINGSLEY,1,32.6594297,-86.7017714,4,27,0,1,1
840,02,026,WALLSBORO,1,32.5890245,-86.1307777,4,27,0,1,1
840,02,027,WARRIOR STD,1,32.3116131,-85.5530853,4,27,0,1,1
840,02,028,LANETT,1,32.8854647,-85.2044589,11,29,0,1,1
840,02,029,COTTONTON,1,32.1473077,-85.0626449,4,27,0,1,1
840,02,030,NEWTON,1,31.3388298,-85.5895835,4,27,0,1,1
840,02,031,GRANGEBURG,1,31.0081277,-85.2112631,4,27,0,1,1
840,02,032,BRUNDIDGE,1,31.7165541,-85.8156189,4,27,0,1,1
840,02,033,BRANTLEY,1,31.5859083,-86.2503780,4,27,0,1,1
840,02,034,SOUTH,1,31.4439507,-86.6131969,4,27,0,1,1
840,02,035,MCLELLAN,1,30.9977072,-86.8858316,4,27,0,1,1
840,02,036,BEATRICE,1,31.7399574,-87.2090516,4,27,0,1,1
840,02,037,LATHAM,0,31.0969767,-87.8321999,4,27,0,1,1
840,02,038,CASTLEBERRY,1,31.3180673,-87.1203132,4,27,0,1,1
840,02,039,MILLRY,1,31.6326050,-88.3131441,4,27,0,1,1
840,02,040,DAUPHIN IS,0,30.2540327,-88.1125479,3,27,0,1,1
840,02,041,ALABAMA PT,0,30.2818577,-87.5183809,3,27,0,1,1
840,02,042,FOLEY,0,30.3701137,-87.6833489,3,27,0,1,1
840,02,043,BLOCTON,1,33.1156047,-87.1007539,13,27,0,1,1
840,02,044,BIRMINGHAM,0,33.5909437,-86.6965489,13,28,0,1,1
840,02,045,WHITEHOUSE,1,34.1311637,-87.7621469,4,27,0,1,1
840,02,046,GUNTERSVILLE,1,34.3142387,-86.4773569,13,28,0,1,1
840,02,047,JENA,1,33.1379607,-87.8205274,4,27,0,1,1
840,02,048,EPES,1,32.6807827,-88.1229309,4,27,0,1,1
840,02,049,WEDGEWORTH,1,32.8055085,-87.7643955,4,27,0,1,1
840,02,050,WHITEHALL,1,32.3276808,-86.7118894,4,27,0,1,1
840,02,051,LIBERTY CITY,1,32.5816871,-85.7164607,11,28,0,1,1
840,02,052,ESCATAWPA,1,31.2926075,-88.3851600,4,27,0,1,1
840,02,053,GROVE HILL,1,31.7097587,-87.7767179,4,27,0,1,1
840,02,054,FAIRVIEW,1,31.2223969,-86.0994295,4,27,0,1,1
840,02,055,ELAMVILLE,1,31.6676037,-85.6508719,4,27,0,1,1
840,02,056,CHILDERSBURG,0,33.4572917,-86.2574629,13,28,0,1,1
840,02,057,YOUNGTOWN,1,34.4236313,-87.3907904,13,28,0,1,1
840,02,058,MENTONE,1,34.5810567,-85.5655830,13,28,0,1,1
840,02,059,CARROLLTON,1,33.2811827,-88.0092154,4,27,0,1,1
840,02,060,HOLT,1,33.2638251,-87.4241383,4,27,0,1,1
840,02,061,ODENVILLE,1,33.7185190,-86.4457647,13,28,0,1,1
840,02,062,BORDEN SPRNG,0,33.9282957,-85.4680639,11,28,0,1,1
840,02,063,ROCK CHAPEL,1,32.4128107,-87.5381089,4,27,0,1,1
840,02,064,NIXBURG,0,32.8224147,-86.1118009,11,28,0,1,1
840,02,065,CALEBEE,1,32.4341515,-85.8711729,4,27,0,1,1
840,02,066,APPLETON,1,31.2283931,-87.0654001,4,27,0,1,1
840,02,067,MT. GILEAD,1,31.4086552,-86.2700460,4,27,0,1,1
840,02,068,MADRID,1,31.0322875,-85.4115544,4,27,0,1,1
840,02,069,GEORGETOWN,1,30.9422777,-88.3523559,4,27,0,1,1
840,02,070,BON SECOUR,1,30.3038647,-87.7299991,3,27,0,1,1
840,02,071,WHEELER DAM,1,34.7961251,-87.3837235,14,24,0,1,1
840,02,072,ELKMONT,1,34.9292307,-86.9887629,14,24,0,1,1
840,02,073,WOODVILLE,1,34.9895137,-86.0671689,21,28,0,1,1
840,02,102,COURTLAND,1,34.6030578,-87.2543912,14,24,0,1,1
840,02,105,BROOKSVILLE,1,34.2126918,-86.4734413,13,28,0,1,1
840,02,109,LAKEVIEW,1,34.3086241,-85.9323092,13,28,0,1,1
840,02,111,CHOCCOLOCCO,1,33.6296357,-85.7466579,13,28,0,1,1
840,02,137,LATHAM 2,1,31.0706664,-87.8350582,4,27,0,1,1
840,02,140,DAUPHIN IS 2,1,30.2484660,-88.1123348,3,27,0,1,1
840,02,141,ALABAMA PT 2,1,30.2816323,-87.5183917,3,27,0,1,1
840,02,142,ELBERTA,1,30.3702220,-87.6024375,3,27,0,1,1
840,02,156,KYMULGA,1,33.2905307,-86.3312989,13,28,0,1,1
840,02,162,Borden Springs 2,1,33.9413322,-85.4504910,11,28,0,1,1
840,02,164,NIXBURG 2,1,32.8223710,-86.1117753,11,28,0,1,1
840,02,201,VINA,1,34.2884067,-88.0675579,4,27,0,1,1
840,02,203,CARTER GROVE,1,34.8223669,-86.6604516,14,24,0,1,1
840,02,204,STEVENSON,1,34.7575557,-85.8594579,13,28,0,1,1
840,02,205,VERNON,1,33.6853138,-88.1671198,4,27,0,1,1
840,02,206,JASPER,0,33.8168747,-87.1378259,13,28,0,1,1
840,02,207,ONEONTA,1,33.8564625,-86.3813006,13,28,0,1,1
840,02,208,TALLADEGA,1,33.3180161,-86.1573541,13,28,0,1,1
840,02,209,WEDOWEE,1,33.1844368,-85.4646040,11,29,0,1,1
840,02,210,GASTONBURG,1,32.1930088,-87.3792753,4,27,0,1,1
840,02,211,AUTAUGAVILLE,1,32.4860839,-86.5697685,4,27,0,1,1
840,02,212,SEALE,1,32.5033347,-85.2532189,4,27,0,1,1
840,02,213,CITRONELLE,1,31.1365731,-88.2207774,4,27,0,1,1
840,02,214,CLAIBORNE,1,31.7459607,-87.6361759,4,27,0,1,1
840,02,215,HELICON,1,31.9052647,-86.1853409,4,27,0,1,1
840,02,216,EUFAULA,1,31.7296264,-85.2558091,4,27,0,1,1
840,02,217,ST. ELMO,1,30.4866365,-88.3854517,3,27,0,1,1
840,02,218,BAY MINETTE,1,30.8034930,-87.6374375,3,27,0,1,1
840,02,306,DRUMMOND,1,33.8163386,-87.1416542,13,28,0,1,1
840,02,750,TRIANA,1,34.4761164,-86.4676524,14,24,0,2,1
840,02,751,RIVERSIDE,1,33.5919601,-86.2041575,13,28,0,2,1
840,02,752,SPROTT-CAHABA RIV,1,32.6683647,-87.2422029,4,27,0,2,1
840,02,753,GAINESTOWN FERRY,1,31.3769106,-87.7232990,4,27,0,2,1
840,02,754,Chacaloochee Bay,1,30.6884440,-87.9693780,4,27,0,2,1
840,02,900,ELKMONT,0,34.9500000,-87.1500000,14,24,0,1,3
840,02,901,TRACE CHEROKEE,1,34.6640490,-88.0898570,4,27,0,1,3
840,03,001,EAGLE,1,64.5527960,-141.2785932,25,4,0,1,1
840,03,002,CIRCLE,1,65.7907167,-144.0890949,25,4,0,1,1
840,03,003,CHATANIKA R,1,65.2698047,-146.7275080,25,4,0,1,1
840,03,004,BIRCH LAKE,1,64.2556227,-146.0769649,25,4,0,1,1
840,03,005,LIVENGOOD,1,65.5631957,-148.4178320,25,4,0,1,1
840,03,006,NEBESNA,0,62.5131787,-143.1732939,68,4,0,1,1
840,03,007,SLANA,1,62.7247807,-143.8893879,68,4,0,1,1
840,03,008,TOWER BLUFFS,1,63.6152141,-143.9862892,25,4,0,1,1
840,03,009,CHISTOCHINA,1,62.4798162,-144.8285530,68,4,0,1,1
840,03,010,NORTHWAY,1,63.0127307,-141.8052529,25,4,0,1,1
840,03,011,MACLAREN,1,63.0531897,-146.0607299,68,4,0,1,1
840,03,012,MONAHAN,1,63.2771884,-147.9444270,68,4,0,1,1
840,03,013,CANTWELL,1,63.3793062,-148.8600000,68,4,0,1,1
840,03,015,TOKLAT,1,63.5152626,-150.0484937,68,4,0,1,1
840,03,016,SEWARD,0,60.1279267,-149.4343410,96,5,0,1,1
840,03,017,GOOSE BAY,0,61.4001137,-149.8425610,96,4,0,1,1
840,03,018,SKILAK LAKE,0,60.4588347,-150.2746280,96,4,0,1,1
840,03,019,HOMER,0,59.5666667,-151.3333333,96,4,0,1,1
840,03,020,JUNEAU ALT,0,58.2513877,-134.6277769,94,5,0,1,1
840,03,021,JUNEAU,1,58.4423687,-134.7660128,94,5,0,1,1
840,03,023,CRAIG,1,55.5557449,-133.0848056,94,5,0,1,1
840,03,024,KETCHIKAN,1,55.3269454,-131.5213101,94,5,0,1,1
840,03,025,HAINES,1,59.3363717,-135.5684509,94,5,0,1,1
840,03,026,BEAVER CREEK,0,55.6333333,-132.7500000,94,5,0,1,1
840,03,028,KALIFONSKY,1,60.2959485,-151.2763427,96,4,0,1,1
840,03,029,MATANUSKA,0,61.7327327,-148.7524720,96,4,0,1,1
840,03,030,WILLOW,1,61.6593477,-150.1403586,96,4,0,1,1
840,03,031,KODIAK,0,57.8166195,-152.6228043,96,2,0,1,1
840,03,040,CHENA RIVER,0,64.9459157,-146.2509150,25,4,0,1,1
840,03,041,L SALCHA,1,64.5464143,-146.9948586,25,4,0,1,1
840,03,042,CHENA HOT SP,0,64.8922107,-147.5414110,25,4,0,1,1
840,03,050,CORDOVA,1,60.4971524,-145.8702080,96,5,0,1,1
840,03,051,THOMPSON PAS,1,61.0587623,-145.9169019,68,5,0,1,1
840,03,052,KENNY LAKE,1,61.7342231,-144.9583298,68,4,0,1,1
840,03,053,SHEEP MTN,1,61.9372560,-147.1759823,68,5,0,1,1
840,03,054,SOURDOUGH,1,62.3624206,-145.3725998,68,4,0,1,1
840,03,055,TONSINA,1,61.6605217,-145.1834259,68,4,0,1,1
840,03,060,KATMAI N.P.,1,58.5472473,-155.7906521,25,2,0,1,1
840,03,084,BEAR CREEK,0,64.5000000,-157.0000000,25,4,0,1,1
840,03,090,ADAK,1,51.8267727,-176.6358200,99,1,0,1,1
840,03,101,CHICKEN,1,64.1668176,-141.4111936,25,4,0,1,1
840,03,112,GLENALLEN,0,62.0285997,-145.3989869,68,4,0,1,1
840,03,113,CHULITNA,0,62.7457057,-150.1218420,68,4,0,1,1
840,03,115,SAVAGE,1,63.7379551,-149.2910681,68,4,0,1,1
840,03,116,MOOSE PASS,0,60.5022017,-149.3709880,96,5,0,1,1
840,03,117,HATCHER PASS,1,61.5869700,-149.4276000,96,5,0,1,1
840,03,118,SWAN LAKE RD,1,60.5957398,-150.7868883,96,4,0,1,1
840,03,119,ANCHOR RIVER,1,59.7967661,-151.7956533,96,5,0,1,1
840,03,121,PETERSBURG,0,56.8076137,-132.9127349,94,5,0,1,1
840,03,122,SITKA,1,57.0173668,-135.1551062,94,5,0,1,1
840,03,123,THORNE BAY,0,55.6882340,-132.6257000,94,5,0,1,1
840,03,124,ZIMOVIA STRT,0,56.4698397,-132.3749999,94,5,0,1,1
840,03,125,YAKUTAT,1,59.4439512,-139.5646039,94,5,0,1,1
840,03,131,CHINIAK,1,57.5333333,-152.4500000,96,2,0,1,1
840,03,142,CHENA HOT SPRING 2,1,65.0544087,-146.0599662,25,4,0,1,1
840,03,180,DILLINGHAM,1,59.0346173,-158.5270562,25,2,0,1,1
840,03,191,COLD BAY,1,55.2694190,-162.8976207,99,2,0,1,1
840,03,192,KING SALMON,1,58.6704647,-156.4585984,25,2,0,1,1
840,03,212,LAKE LOUISE,1,62.2317426,-146.5156380,68,4,0,1,1
840,03,213,SU BRIDGE,0,62.3970477,-150.2629230,68,4,0,1,1
840,03,216,HOPE,1,60.7796745,-149.5527653,96,5,0,1,1
840,03,217,WASILLA,0,61.6306207,-149.8300790,96,4,0,1,1
840,03,218,COHOE,1,60.3668387,-151.3719470,96,4,0,1,1
840,03,219,SELDOVIA,0,59.4466527,-151.4864670,96,4,0,1,1
840,03,221,MITKOF ISLE,1,56.7395445,-132.7658694,94,5,0,1,1
840,03,223,THORNE BAY 2,1,55.8442630,-132.5433400,94,5,0,1,1
840,03,224,ZIMOVIA STRT,1,56.4599307,-132.3798899,94,5,0,1,1
840,03,231,Kodiak 2,1,57.8128265,-152.6177000,96,2,0,1,1
840,03,284,NICHOLAI SL,1,64.7706568,-157.0287273,25,4,0,2,1
840,03,313,PETERSVILLE,1,62.3172987,-150.2366378,68,4,0,1,1
840,03,318,SEVEN LAKES,1,60.5259627,-150.5656383,96,4,0,1,1
840,03,319,KACHEMAK,1,59.6464107,-151.5606980,96,4,0,1,1
840,03,321,HARLEQUIN L.,1,59.4178465,-139.0217497,94,5,0,1,1
840,03,372,DIETRICH CMP,1,67.6695397,-149.7149200,99,3,0,1,1
840,03,401,BURMA ROAD,1,61.4001417,-149.8424370,96,4,0,1,1
840,03,402,CAPE NOME,1,64.4875219,-165.3122783,99,2,0,1,1
840,03,403,CARIBOU MTN.,1,66.4417734,-150.6324337,99,4,0,1,1
840,03,404,COLDFOOT,1,67.0166107,-150.2901100,99,3,0,1,1
840,03,405,COUNCIL,1,64.5451414,-164.4368625,99,2,0,1,1
840,03,406,DONELLY DOME,1,64.0157146,-145.7282965,25,4,0,1,1
840,03,407,UNALAKLEET RIVER,1,64.0145247,-159.8094470,25,4,0,2,1
840,03,408,GALBRAITH L.,1,68.4265923,-149.3473217,99,3,0,1,1
840,03,409,HAPPY VALLEY,1,68.8572136,-148.8351789,99,3,0,1,1
840,03,410,HATHER CREEK,1,63.5963002,-158.0780083,25,4,0,2,1
840,03,411,HOONAH,1,57.9218687,-135.0455629,94,5,0,1,1
840,03,412,WHALE PASS,1,56.2075277,-133.0775149,94,5,0,1,1
840,03,413,TANGLE LAKES,0,63.0461337,-146.0316309,68,4,0,1,1
840,03,414,KANUTI CANYN,1,66.3335727,-152.9504467,25,4,11,2,1
840,03,415,MCGRATH,1,62.9510075,-155.5890429,25,4,0,1,1
840,03,416,KOYUKUK RIV.,1,66.5800037,-151.9421260,25,4,0,2,1
840,03,417,COTTONWOOD,0,61.5640897,-149.3503560,96,4,0,1,1
840,03,418,MANLEY HT SP,1,65.0076556,-150.6131749,25,4,0,1,1
840,03,419,MOOSE CREEK,1,65.4883997,-148.6547200,25,4,0,1,1
840,03,420,MT. FAIRPLAY,1,63.6093407,-142.3235417,25,4,0,1,1
840,03,421,MUD RIVER,1,63.5830470,-157.8441809,25,4,0,2,1
840,03,422,NOME,1,64.7776327,-165.9993285,99,2,0,1,1
840,03,423,RUBY,1,64.4609377,-155.5238960,25,4,0,1,1
840,03,424,SALMON LAKE,1,64.6158900,-165.3015102,99,2,0,1,1
840,03,425,SKAGWAY,1,59.5294227,-135.3507079,94,5,0,1,1
840,03,426,ST. MARY'S,1,62.0526113,-163.1690916,99,2,0,1,1
840,03,427,TELLER,1,64.8314753,-166.0880717,99,2,0,1,1
840,03,428,MURPHY DOME,1,64.9122387,-147.9422770,25,4,0,1,1
840,03,429,ZAREMBO,1,56.3501108,-132.7665559,94,5,0,1,1
840,03,430,PORCUPINE R.,1,66.6919918,-144.7314019,25,4,0,2,1
840,03,431,DELTA,1,63.8562570,-145.7381802,25,4,0,1,1
840,03,432,FT. RICHRDSN,1,61.2964911,-149.7786148,96,4,0,1,1
840,03,433,ANVIK RIVER,1,62.9209173,-160.6919837,25,4,0,2,1
840,03,434,TOGIAK RIVER,1,59.5316820,-159.6936457,99,2,0,2,1
840,03,435,CHICHAGOF IS,1,57.8376397,-135.0598309,94,5,0,1,1
840,03,436,GWEEK RIVER,1,60.8732615,-161.6032109,99,2,0,2,1
840,03,437,TUPUKNUK,1,60.6947613,-161.6098199,99,2,0,2,1
840,03,438,RED DOG,1,67.8544008,-163.3028181,99,3,0,1,1
840,03,439,HYDER,1,55.9156605,-130.0162113,94,5,0,1,1
840,03,440,TATALINA,1,62.9117822,-155.6186013,25,4,0,1,1
840,03,442,KANEKTOK RIV,1,59.8562241,-160.6818422,99,2,0,2,1
840,03,444,KOTZEBUE,1,66.9018584,-162.5638810,99,2,0,1,1
840,03,445,Kanuti Lake,1,66.2372145,-152.1177445,25,4,11,2,1
840,03,760,GOODNEWS BAY,1,59.3271587,-161.0287160,25,2,0,2,1
840,03,811,KOBUK RIVER (Short),0,67.1032427,-158.2747810,25,4,0,2,6
840,03,812,PINOCHE TRAL (Short),0,61.9166667,-147.6666667,68,4,0,1,6
840,03,816,KENAI LAKE (Short),0,60.3856237,-149.6883700,96,5,0,1,6
840,03,817,ELMENDORF (Short),0,61.0000000,-149.0000000,96,5,0,1,6
840,03,821,HARLEQUIN L (Short),0,59.4192119,-139.0259182,94,5,0,1,6
840,03,822,SITKA (Short),0,57.1269767,-135.3478099,94,5,0,1,6
840,03,824,WRANGELL (Short),0,56.0000000,-132.0000000,94,5,0,1,6
840,03,825,YAKUTAT (Short),0,59.0000000,-139.0000000,94,5,0,1,6
840,03,832,ALPENGLOW (Short),0,61.2560417,-149.5443560,96,5,0,1,6
840,03,850,COPPER RIVER,0,60.4652137,-145.3482303,96,5,0,1,1
840,03,851,VALDEZ (Short),0,61.1264627,-146.3586440,96,5,0,1,6
840,03,880,DILLINGHAM (Short),0,59.2727127,-158.6213540,25,2,0,1,6
840,03,881,KUGARAK (Short),0,66.5989357,-159.1257000,25,2,0,1,6
840,03,882,SELAWIK (Short),0,66.5554507,-159.0294360,25,2,0,1,6
840,03,883,GALENA (Short),1,64.7399997,-156.9660000,25,4,0,1,6
840,03,884,KOTZEBUE (Short),0,66.8910427,-162.5535730,99,2,0,1,6
840,03,891,COLD BAY (Short),0,55.1689487,-162.7422930,99,2,0,1,6
840,03,892,KING SALMON (Short),0,58.6712837,-156.4594270,99,2,0,1,6
840,03,901,PAXSON LAKE,1,63.0291587,-145.4974345,68,4,0,1,3
840,03,902,NABESNA ROAD,1,62.4422837,-143.0712119,68,4,0,1,3
840,03,903,KUSKULANA,1,61.5260959,-144.4072212,68,4,0,1,3
840,03,905,MCCARTHY RD2,1,61.4337187,-142.9452499,68,4,0,1,3
840,03,906,STIKINE RIVER,1,56.6468465,-131.8566825,94,5,0,2,3
840,03,907,KUIU ISLAND,1,56.7078365,-134.2423435,94,5,0,1,3
124,04,001,SEVEN PERSON,1,49.9322200,-110.8445200,38,11,0,1,1
124,04,002,BOW ISLAND,1,49.8732400,-111.4102000,38,11,0,1,1
124,04,003,MILK RIVER,1,49.0899500,-112.3969900,65,11,0,1,1
124,04,004,FORT MACLEOD,1,49.8150900,-113.5698200,38,11,0,1,1
124,04,005,SENTINEL,0,49.6325000,-114.5869200,64,10,0,1,1
124,04,006,BINDLOSS,1,50.7466800,-110.2586900,38,11,0,1,1
124,04,007,BROOKS,0,50.5638800,-111.8491600,38,11,0,1,1
124,04,008,BOW CITY,0,50.3027900,-112.0204100,38,11,0,1,1
124,04,009,BUFFALO HILL,1,50.6014700,-113.0285200,38,11,0,1,1
124,04,010,HIGHWOOD RIV,1,50.4805300,-114.4245600,30,10,0,1,1
124,04,011,CEREAL,1,51.0088700,-110.7956000,37,11,0,1,1
124,04,012,BIG STONE,0,51.3287500,-111.0782300,37,11,0,1,1
124,04,013,ROWLEY,1,51.7781800,-112.6469400,37,11,0,1,1
124,04,014,KEOMA,0,51.2126100,-113.7723400,30,11,0,1,1
124,04,015,EAGLE HILL,1,51.8314300,-114.4503900,30,6,0,1,1
124,04,016,EXSHAW,0,51.0952100,-115.0911100,64,10,0,1,1
124,04,017,BOW PASS,1,51.4602100,-116.2202300,64,10,0,1,1
124,04,018,CZAR,1,52.4630900,-110.6512700,30,11,0,1,1
124,04,019,TALBOT,1,52.2011100,-111.0763800,37,11,0,1,1
124,04,020,HALKIRK,1,52.1720800,-112.3386100,37,11,0,1,1
124,04,021,DELBURNE,0,52.2012600,-113.2275300,30,11,0,1,1
124,04,022,RAVEN,1,52.0279900,-114.4778200,30,6,0,1,1
124,04,023,HARLECH,0,52.4981400,-116.0001600,29,6,0,1,1
124,04,024,WINDY POINT,1,52.2587200,-116.3916800,29,10,0,1,1
124,04,025,MALIGNE LAKE,1,52.7314100,-117.6370900,64,10,0,1,1
124,04,026,DERWENT,1,53.4966600,-110.8664400,30,11,0,1,1
124,04,027,TWO HILLS,1,53.7155500,-111.5255600,30,11,0,1,1
124,04,028,LINDBROOK,1,53.3376900,-112.7820800,30,11,0,1,1
124,04,029,CALAHOO,1,53.6870100,-113.8854800,30,11,0,1,1
124,04,030,WARBURG,1,53.1638100,-114.2200800,30,6,0,1,1
124,04,031,RONAN,1,53.8027200,-115.2655100,29,6,0,1,1
124,04,032,EDSON,1,53.5991700,-116.4042500,29,6,0,1,1
124,04,033,ENTRANCE,1,53.3741000,-117.7106300,29,6,0,1,1
124,04,034,HOFF,1,53.8125400,-118.4834500,29,10,0,1,1
124,04,036,KEHIWIN LAKE,1,54.0577000,-110.8863000,30,6,0,1,1
124,04,037,THERIEN,1,54.2676300,-111.2782000,30,6,0,1,1
124,04,038,KINIKINIK,1,54.4999900,-112.9798600,29,6,0,1,1
124,04,039,ATHABASCA,1,54.8351300,-113.1581600,29,6,0,1,1
124,04,040,THUNDER LAKE,1,54.1203800,-114.7149100,29,6,0,1,1
124,04,041,SWAN HILLS,0,54.7602600,-115.5376400,29,6,0,1,1
124,04,042,WINDFALL,1,54.1331100,-116.2159200,30,6,0,1,1
124,04,043,LITTLE SMOKY,1,54.7660900,-117.2478200,30,6,0,1,1
124,04,044,ECONOMY CRK,1,54.7501100,-118.2262100,30,6,0,1,1
124,04,045,WAPITI,0,54.9378800,-119.1958300,30,6,0,1,1
124,04,046,WINEFRED LAKE,1,55.5542100,-110.9070800,29,6,0,1,1
124,04,047,HEART LAKE,1,55.0061300,-111.7319500,29,6,0,1,1
124,04,048,WANDERING R,0,55.3870500,-112.4537100,29,6,0,1,1
124,04,049,CALLING LAKE,1,55.4860000,-113.4400000,29,6,0,1,1
124,04,050,MARTEN RIVER,1,55.4990300,-114.9141600,29,6,0,1,1
124,04,051,KINUSO,0,55.2579700,-115.3853400,29,6,0,1,1
124,04,052,HIGH PRAIRIE,0,55.5528000,-116.7818400,29,6,0,1,1
124,04,053,WATINO,1,55.7814300,-117.8255500,29,6,0,1,1
124,04,054,RYCROFT,1,55.8402700,-118.4572200,29,6,0,1,1
124,04,055,WEMBLEY,1,55.1415000,-119.2177400,30,6,0,1,1
124,04,057,HANGINGSTONE,0,56.2334900,-111.6721200,29,6,0,1,1
124,04,061,LOON RIVER,1,56.2842400,-115.3641600,29,6,0,1,1
124,04,062,THREE CREEKS,1,56.3628000,-117.0033500,29,6,0,1,1
124,04,063,CARDINAL LK,1,56.2761100,-117.8211900,29,6,0,1,1
124,04,064,HINES CREEK,1,56.5084200,-118.7391200,29,6,0,1,1
124,04,065,BEAR CANYON,1,56.1949600,-119.8199000,29,6,0,1,1
124,04,073,HOTCHKISS,1,57.0681200,-117.6108900,29,6,0,1,1
124,04,077,FORT SMITH,1,59.9885700,-111.8384900,25,6,0,1,1
124,04,078,PEACE POINT,1,59.3110200,-112.4871600,29,6,0,1,1
124,04,079,HAY CAMP,1,59.8617500,-111.6148400,25,6,0,1,1
124,04,096,KANANASKIS,1,50.9854500,-115.0752600,64,10,0,1,1
124,04,101,MANYBERRIES,1,49.2612700,-110.6907900,38,11,0,1,1
124,04,102,SHERBOURNE L,1,49.5822900,-111.6978900,38,11,0,1,1
124,04,103,HORSEFLY LK.,1,49.6113400,-112.1495000,38,11,0,1,1
124,04,104,GRANUM,1,49.9021400,-113.0986700,38,11,0,1,1
124,04,105,WATERTON PRK,1,49.0201000,-114.0452800,65,10,0,1,1
124,04,106,SCHULER,1,50.0043200,-110.0731900,38,11,0,1,1
124,04,107,WARDLOW,1,50.9213900,-111.1127500,38,11,0,1,1
124,04,108,RANIER,0,50.3027900,-112.0204100,38,11,0,1,1
124,04,109,MAZEPPA,1,50.4263500,-113.8272800,37,11,0,1,1
124,04,110,OKOTOKS,0,50.5426300,-114.0934500,37,11,0,1,1
124,04,111,ESTHER,1,51.4453300,-110.3802800,37,11,0,1,1
124,04,112,HEMARUKA,1,51.5755100,-111.2007900,37,11,0,1,1
124,04,113,DOWLING LAKE,1,51.9544100,-112.1311500,37,11,0,1,1
124,04,114,SHEEP COULEE,1,51.5614800,-113.8962100,30,11,0,1,1
124,04,115,DIDSBURY,1,51.5479400,-114.2126800,30,11,0,1,1
124,04,116,WIGWAM CREEK,1,51.6616600,-115.4069400,29,6,0,1,1
124,04,118,MILLARD LAKE,1,52.9307400,-110.5843700,30,11,0,1,1
124,04,119,KILLAM,1,52.9014900,-111.8904200,30,11,0,1,1
124,04,120,HEISLER,1,52.6380100,-111.9962800,30,11,0,1,1
124,04,121,BATTLE RIVER,1,52.6106900,-113.9870200,30,11,0,1,1
124,04,122,BENALTO,1,52.5814000,-114.4095900,30,6,0,1,1
124,04,123,CRIPPLE CRK,1,52.2093500,-115.9678100,64,6,0,1,1
124,04,125,SUNWAPTA FLS,1,52.4877100,-117.5183200,64,10,0,1,1
124,04,126,VANESTI,1,53.2900300,-110.5417200,30,11,0,1,1
124,04,127,VIKING,1,53.1032900,-111.7601200,30,11,0,1,1
124,04,128,BRUCE,1,53.1050500,-112.1482500,30,11,0,1,1
124,04,129,HAY LAKES,0,53.1197800,-113.1229000,30,11,0,1,1
124,04,130,TOMAHAWK,0,53.5412200,-114.7868500,30,6,0,1,1
124,04,131,MACKAY,1,53.7736200,-115.6118900,29,6,0,1,1
124,04,136,BEAVERDAM,1,54.1805200,-110.3049400,29,6,0,1,1
124,04,137,LAC LA BICHE,1,54.7573500,-111.9718400,29,6,0,1,1
124,04,138,LONG LAKE,1,54.4341400,-112.8288000,30,6,0,1,1
124,04,139,PICKARDVILLE,1,54.0508300,-113.9155500,30,11,0,1,1
124,04,141,FREEMAN LAKE,1,54.7423100,-115.7825300,29,6,0,1,1
124,04,143,FOX CREEK,1,54.3633500,-117.0365900,30,6,0,1,1
124,04,147,CONKLIN,1,55.6692300,-111.1069400,29,6,0,1,1
124,04,149,SANDY LAKE,1,55.9036600,-113.6985100,29,6,0,1,1
124,04,152,WINAGAMI LK,1,55.5995400,-116.6137100,29,6,0,1,1
124,04,153,VALLEYVIEW,1,55.0834100,-117.3570000,30,6,0,1,1
124,04,154,HEART VALLEY,1,55.6946300,-118.3885300,30,6,0,1,1
124,04,155,HYTHE,1,55.3160100,-119.6655400,30,6,0,1,1
124,04,157,WILLOW LAKE,1,56.1651000,-110.8558400,29,6,0,1,1
124,04,163,DEADWOOD,1,56.7409700,-117.4582500,29,6,0,1,1
124,04,164,DEER HILL,1,56.2474300,-118.0795600,29,6,0,1,1
124,04,165,PEACE RIVER,1,56.3636500,-119.0307000,29,6,0,1,1
124,04,196,SMITH DORRIEN,1,50.6917000,-115.1391700,64,10,0,1,1
124,04,201,THELMA,1,49.5381200,-110.2754600,38,11,0,1,1
124,04,202,ETZIKOM COUL,1,49.3484700,-111.7993700,38,11,0,1,1
124,04,203,KIPP COULEE,1,49.3842300,-112.6510600,38,11,0,1,1
124,04,204,TWIN BUTTE,1,49.2617400,-113.6568300,38,11,0,1,1
124,04,205,COLEMAN,1,49.6358900,-114.4896700,64,10,0,1,1
124,04,206,BOWELL,1,50.2220600,-110.9602200,38,11,0,1,1
124,04,207,HAYS,1,50.1523500,-111.9835500,38,11,0,1,1
124,04,208,ENCHANT,1,50.1644800,-112.3142800,38,11,0,1,1
124,04,209,ENSIGN,1,50.4846400,-113.3902100,38,11,0,1,1
124,04,210,LONGVIEW,1,50.5136400,-114.2469000,37,11,0,1,1
124,04,211,ACADIA VALLY,1,51.3578800,-110.1927800,38,11,0,1,1
124,04,212,SPONDIN,1,51.7655300,-111.5169700,37,11,0,1,1
124,04,213,CRAWLING VAL,1,51.1833300,-112.3305500,37,11,0,1,1
124,04,214,KATHYRN,1,51.4154000,-113.7321000,30,11,0,1,1
124,04,215,GHOST LAKE,1,51.2104600,-114.7631000,29,10,0,1,1
124,04,218,HAYTER,1,52.2885100,-110.1953800,30,11,0,1,1
124,04,219,AMISK,1,52.6677500,-111.1085900,30,11,0,1,1
124,04,220,BASHAW,1,52.5217500,-112.8596900,30,11,0,1,1
124,04,221,LACOMBE,1,52.5512500,-113.9396200,30,11,0,1,1
124,04,222,RIMBEY,1,52.6572100,-114.1936300,30,6,0,1,1
124,04,223,BREWSTER CRK,0,52.7959300,-115.5203700,29,6,0,1,1
124,04,225,MOUNTAIN PRK,1,52.9846300,-117.3416600,29,10,0,1,1
124,04,226,PARADISE VAL,1,53.2635300,-110.1518700,30,11,0,1,1
124,04,227,LAKE ELIZA,1,53.7762400,-111.2425700,30,6,0,1,1
124,04,228,SKARO,1,53.9343400,-112.7033500,30,11,0,1,1
124,04,229,CALMAR,1,53.3377000,-113.8533900,30,11,0,1,1
124,04,230,MOON LAKE,1,53.4831100,-114.7877300,30,6,0,1,1
124,04,231,NITON,1,53.7245700,-115.7105500,29,6,0,1,1
124,04,236,ARDMORE,1,54.3556000,-110.3539300,29,6,0,1,1
124,04,237,HELENA,1,54.4716000,-111.3793900,29,6,0,1,1
124,04,238,BARICH,1,54.2392400,-112.2259100,30,6,0,1,1
124,04,239,EGREMONT,1,54.0362400,-113.3213500,30,6,0,1,1
124,04,240,FAWCETT,0,54.4718100,-114.0776000,29,6,0,1,1
124,04,241,CONNOR CREEK,1,54.0351500,-115.1175400,29,6,0,1,1
124,04,251,SWAN RIVER,1,54.9990000,-115.2599400,29,6,0,1,1
124,04,252,PRAIRIE ECHO,1,55.4323300,-116.4117000,29,6,0,1,1
124,04,253,NEW FISH CREEK,1,55.4327900,-117.1799200,30,6,0,1,1
124,04,254,FITZSIMMONS,1,55.3458900,-118.3591100,30,6,0,1,1
124,04,255,BEAR LAKE,1,55.4614800,-119.0514000,30,6,0,1,1
124,04,301,RUSH LAKE,0,49.5235100,-110.6814300,38,11,0,1,1
124,04,302,LEGEND,1,49.7564200,-111.5174100,38,11,0,1,1
124,04,303,WRENTHAM,1,49.4650100,-112.4269200,38,11,0,1,1
124,04,304,SUMMERVIEW,1,49.7494800,-113.7843100,38,11,0,1,1
124,04,306,Roseglen,1,50.5574900,-110.3254700,38,11,6,1,1
124,04,307,STEVEVILLE,1,50.9357800,-111.8656800,38,11,0,1,1
124,04,308,MAJORVILLE,0,50.6014400,-112.9940800,38,11,0,1,1
124,04,309,CLEAR LAKE,1,50.0193200,-113.3905400,38,11,0,1,1
124,04,310,CHAIN LAKES,1,50.2701700,-114.2075100,37,11,0,1,1
124,04,311,CHINOOK,1,51.4445200,-110.9191300,37,11,0,1,1
124,04,312,OAKLAND LAKE,1,51.4161300,-111.4761500,37,11,0,1,1
124,04,313,DOROTHY,1,51.3288500,-112.0443100,37,11,0,1,1
124,04,314,CARBON,1,51.3578600,-113.1691700,30,11,0,1,1
124,04,315,LOCHEND LAKE,1,51.3292200,-114.2596900,30,11,0,1,1
124,04,318,CONSORT,1,52.0119100,-110.7429600,30,11,0,1,1
124,04,319,FLEET,1,51.9975600,-111.8144400,37,11,0,1,1
124,04,320,STROME,1,52.8143500,-112.0357400,30,11,0,1,1
124,04,321,TEES,1,52.7267400,-113.2209600,30,11,0,1,1
124,04,322,HESPERO,1,52.4063500,-114.4095800,30,6,0,1,1
124,04,323,NORDEGG RIV.,0,52.5232600,-115.9543800,29,6,0,1,1
124,04,326,ELK POINT,1,53.9914300,-110.9457500,30,6,0,1,1
124,04,327,MYRNAM,1,53.4538300,-111.1340200,30,6,0,1,1
124,04,328,KINGMAN,1,53.3086200,-112.7818900,30,11,0,1,1
124,04,329,CLOVER LAWN,1,53.1343000,-113.1962100,30,11,0,1,1
124,04,330,ISLE LAKE,1,53.6284400,-114.3987000,30,6,0,1,1
124,04,331,CHIP LAKE,1,53.6138800,-115.4511100,29,6,0,1,1
124,04,336,MARGUERITE L,1,54.6361900,-110.7613100,29,6,0,1,1
124,04,337,ST. LINA,1,54.2676900,-111.2532000,30,6,0,1,1
124,04,338,NORAL,1,54.6733400,-112.3749300,30,6,0,1,1
124,04,339,ISLAND LAKE,1,54.6175500,-113.4330900,29,6,0,1,1
124,04,340,NEERLANDIA,1,54.3405900,-114.4894100,29,6,0,1,1
124,04,352,GROUARD,1,55.4327700,-116.3062300,29,6,0,1,1
124,04,353,KIMIWAN LAKE,1,56.0045400,-117.1853100,29,6,0,1,1
124,04,354,WANHAM,1,55.8105200,-118.1295500,29,6,0,1,1
124,04,355,ALBRIGHT,1,55.2579000,-119.9759300,30,6,0,1,1
124,04,401,MEDICINE HAT,1,49.8621600,-110.6817400,38,11,0,1,1
124,04,404,TROUT CREEK,1,49.8757720,-114.0791140,30,10,0,1,1
124,04,407,Lake Newell,1,50.5638800,-111.8491600,38,11,0,1,1
124,04,408,ROSEMARY,1,50.9214700,-112.1744900,38,11,0,1,1
124,04,411,Cavendish,1,50.7027700,-110.6092900,38,11,0,1,1
124,04,412,Blood Indian Resevoi,1,51.2705900,-111.1908600,37,11,0,1,1
124,04,413,McNab,1,49.3483400,-112.2699800,38,11,0,1,1
124,04,414,Sunnyslope,1,51.6782800,-113.6661570,30,11,0,1,1
124,04,421,PINE LAKE,1,52.2011400,-113.2191300,30,11,0,1,1
124,04,429,South Cooking Lake,1,53.1197800,-113.1229000,30,11,0,1,1
124,04,430,YEOFORD,1,53.0177200,-114.1725800,30,6,0,1,1
124,04,438,SKUKUM LAKE,0,54.9181600,-112.0179800,29,6,0,1,1
124,04,440,FREEDOM,1,54.2392200,-114.0520200,29,6,0,1,1
124,04,452,SNIPE LAKE,1,55.1125500,-116.7977800,29,6,0,1,1
124,04,501,Rolling Hills,1,50.0891300,-111.5681400,38,11,0,1,1
124,04,504,Furman,0,49.9808300,-113.9080000,30,10,0,1,1
124,04,508,BASSANO,1,50.8339700,-112.4512700,37,11,0,1,1
124,04,512,Onefour,1,49.1014900,-110.5625500,38,11,0,1,1
124,04,540,Pembina River,1,54.4802900,-114.1532600,29,6,0,1,1
124,04,608,New Majorville,1,50.6014400,-112.9940800,38,11,0,1,1
124,04,612,Wildhorse,1,49.1014900,-110.5625500,38,11,0,1,1
124,04,712,Cutbank Creek,1,49.1014900,-110.5625500,38,11,0,1,1
124,04,928,ELK ISLAND,1,53.7162500,-112.8153400,30,11,0,1,3
840,06,001,MT TRUMBULL,0,36.4118157,-113.3253169,87,16,0,1,1
840,06,002,HOUSE ROCK,1,36.7313947,-112.0460509,87,16,0,1,1
840,06,003,THE GAP,0,36.1623537,-111.3865819,87,16,0,1,1
840,06,004,BLACK MESA,1,36.5612867,-110.5019459,84,16,0,1,1
840,06,005,ROUND ROCK,0,36.5089267,-109.4726859,84,16,0,1,1
840,06,006,SQUAW PEAK,0,35.8986777,-114.2909089,83,33,0,1,1
840,06,007,YAMPAI,0,35.5156177,-113.2016679,87,16,0,1,1
840,06,008,ROSE WELLS,0,35.7549067,-112.8721919,87,16,0,1,1
840,06,009,FLAGSTAFF,1,35.3950617,-111.5777809,84,34,0,1,1
840,06,010,ORAIBI,1,35.8687197,-110.6230399,87,16,0,1,1
840,06,011,SAWMILL,1,35.6789790,-109.2046208,84,16,0,1,1
840,06,012,OATMAN,1,34.9859877,-114.4831159,83,33,0,1,1
840,06,013,WIKIEUP,1,34.7270747,-113.9188229,82,33,0,1,1
840,06,014,PRESCOTT,1,34.6437087,-112.4327389,84,34,0,1,1
840,06,015,MORMON LAKE,0,34.8492047,-111.4342499,84,34,0,1,1
840,06,016,ZENIFF,0,34.6673667,-110.3230139,87,34,0,1,1
840,06,017,HUNT,1,34.4781336,-109.6046705,87,16,0,1,1
840,06,018,QUARTZSITE,1,33.6562037,-114.2169649,82,33,0,1,1
840,06,019,VICKSBURG,0,33.8839297,-113.8530119,82,33,0,1,1
840,06,020,NEW RIVER,1,33.7034749,-112.2723363,82,33,0,1,1
840,06,021,FLORENCE,0,33.0219797,-111.2169189,82,33,0,1,1
840,06,022,AZTEC PEAK,0,33.8114477,-110.9051519,81,34,0,1,1
840,06,023,BLUE,0,33.6100527,-109.1067429,84,34,0,1,1
840,06,024,LAGUNA,1,32.8332815,-114.3988546,82,33,0,1,1
840,06,025,DATELAND,1,32.9285617,-113.5413359,82,33,0,1,1
840,06,026,AJO,0,32.3325717,-112.7874759,82,33,0,1,1
840,06,027,COOLIDGE,0,33.0156287,-111.3839189,82,33,0,1,1
840,06,028,POMERENE,1,32.0343407,-110.3031159,81,34,0,1,1
840,06,029,SAN SIMON,1,32.4996877,-109.3368449,56,34,0,1,1
840,06,030,LUKEVILLE,0,32.0266567,-112.9573589,82,33,0,1,1
840,06,031,PENA BLANCA,0,31.3874490,-111.0645640,81,34,0,1,1
840,06,032,PATAGONIA,1,31.5175977,-110.7949529,81,34,0,1,1
840,06,033,SUNIZONA,0,31.8181957,-109.6948089,81,34,0,1,1
840,06,051,TOROWEAP,1,36.2863797,-113.0649869,87,16,0,1,1
840,06,052,DRY PARK,1,36.3131479,-112.0319722,84,16,0,1,1
840,06,053,PAGE,1,36.9132282,-111.4526999,87,16,0,1,1
840,06,054,COW SPRINGS,1,36.3915637,-110.8794319,87,16,0,1,1
840,06,055,MANY FARMS,1,36.3599237,-109.6437909,87,16,0,1,1
840,06,056,RIVIERA,1,35.1226722,-114.5821560,82,33,0,1,1
840,06,057,ANTARES,1,35.4272901,-113.8087941,87,33,0,1,1
840,06,058,WILLIAMS,1,35.0556327,-112.2188339,84,34,0,1,1
840,06,059,MAINE,1,35.1634107,-111.9475859,84,34,0,1,1
840,06,060,CASTLE BUTTE,1,35.2779817,-110.3798989,87,16,0,1,1
840,06,061,GREASEWOOD,0,35.5302347,-109.8516089,87,16,0,1,1
840,06,063,ALAMO RES.,1,34.2318174,-113.5975476,82,33,0,1,1
840,06,064,SKULL VALLEY,1,34.7733727,-112.6192267,84,34,0,1,1
840,06,065,TONTO VILL.,1,34.3566847,-111.1008299,84,34,0,1,1
840,06,066,FOREST LAKES,1,34.7000000,-110.7666667,84,34,0,1,1
840,06,067,PINETOP,1,34.1153987,-109.9154509,84,34,0,1,1
840,06,068,CIBOLA LAKE,1,33.2314477,-114.6682760,82,33,0,1,1
840,06,069,GILA BEND,1,33.2869987,-112.9375459,82,33,0,1,1
840,06,070,PALO VERDE,0,33.3339864,-112.6772170,82,33,0,1,1
840,06,071,BARTLETT RES,1,33.8177037,-111.6398389,82,34,0,1,1
840,06,072,CUTTER,0,33.1754789,-110.5290913,82,34,0,1,1
840,06,073,ALPINE,1,33.8668667,-109.1657669,84,34,0,1,1
840,06,074,ARABY,1,32.8548017,-114.4452209,82,33,0,1,1
840,06,076,PISINIMO,0,32.1764407,-112.2624969,82,33,0,1,1
840,06,077,RED ROCK,0,32.5731200,-111.3291239,82,33,0,1,1
840,06,078,REDINGTON,1,32.5434377,-110.5053099,81,34,0,1,1
840,06,079,MT. GRAHAM,1,32.6498267,-109.8181145,81,34,0,1,1
840,06,080,CABEZA PRIET,1,32.4009815,-112.9321083,82,33,0,1,1
840,06,081,AMADO,1,31.7120327,-111.0671459,81,34,0,1,1
840,06,082,SAHUARITA,1,31.9576267,-110.9446259,81,34,0,1,1
840,06,083,MCNEAL,1,31.6464055,-109.4732045,56,34,0,1,1
840,06,101,NAVAJO TRAIL,1,36.6901017,-113.4587859,87,16,0,1,1
840,06,103,KAIBITO,1,36.6095467,-111.0768659,87,16,0,1,1
840,06,105,TSAILE,1,36.3019687,-109.1965869,84,16,0,1,1
840,06,106,WILLOW BEACH,0,35.8663787,-114.6619869,83,33,0,1,1
840,06,107,PEACH SPRING,1,35.5541565,-113.3760172,87,16,0,1,1
840,06,108,SELIGMAN,1,35.2307957,-112.5859679,87,16,0,1,1
840,06,115,HAPPY JACK,1,34.8379964,-111.4382855,84,34,0,1,1
840,06,116,CLAY SPRING,1,34.6116178,-110.3781682,84,34,0,1,1
840,06,119,HOPE,0,33.9225847,-113.8247909,82,33,0,1,1
840,06,121,CASA GRANDE,1,33.0385437,-111.3789069,82,33,0,1,1
840,06,122,CARR MTN,1,33.5656117,-110.9464649,81,34,0,1,1
840,06,123,SPRUCEDALE,1,33.6103817,-109.1063079,84,34,0,1,1
840,06,126,Ajo 2,1,32.4655000,-112.8698800,82,33,0,1,1
840,06,127,CACTUS FOREST,1,32.9583127,-111.3334729,82,33,0,1,1
840,06,130,ORGAN PIPE,0,31.9571917,-112.7999879,82,33,0,1,1
840,06,133,PORTAL,1,31.9825267,-109.2013399,81,34,0,1,1
840,06,161,KLAGETOH,1,35.5413048,-109.3232177,87,16,0,1,1
840,06,170,PALO VERDE 2,1,33.3339864,-112.6772170,82,33,0,1,1
840,06,172,CUTTER 2,1,33.1788090,-110.2150690,82,33,0,1,1
840,06,176,BATES WELL,0,32.3559327,-112.8270799,82,33,0,1,1
840,06,177,RED ROCK 2,1,32.5731200,-111.3291230,82,33,0,1,1
840,06,206,WILLOW BEACH 2,1,35.8663187,-114.6620259,83,33,0,1,1
840,06,219,HOPE 2,1,33.9225847,-113.8247900,82,33,0,1,1
840,06,233,SUNIZONA 2,1,31.7587100,-109.7379700,81,34,0,1,1
840,06,900,DRAGOON,1,31.9197167,-109.9150009,81,34,0,1,3
840,06,901,RUCKER,0,31.6064617,-109.2258228,81,34,0,1,3
840,07,001,OLD MILO,1,33.3121558,-91.8906744,4,25,0,1,1
840,07,002,EUDORA,1,33.1683737,-91.3322519,5,26,0,1,1
840,07,003,RAMSEY,0,33.9045937,-92.5979989,4,25,0,1,1
840,07,004,LOCUST BAYOU,1,33.5907857,-92.6974039,4,25,0,1,1
840,07,005,STAMPS,1,33.3755757,-93.4706879,4,25,0,1,1
840,07,006,HOPE,1,33.6627163,-93.6694105,4,25,0,1,1
840,07,007,ASHDOWN,1,33.6969877,-94.1229479,4,25,0,1,1
840,07,008,HUGHES,1,34.9269397,-90.5065699,5,26,0,1,1
840,07,009,WEST TYLER,0,34.7079957,-91.7000729,5,26,0,1,1
840,07,010,SOUTH BEND,1,34.0487397,-91.4995419,5,26,0,1,1
840,07,011,CROWS,0,34.6176687,-92.7855459,19,25,0,1,1
840,07,012,POYEN,0,34.3401497,-92.6636599,4,25,0,1,1
840,07,013,HOLLYWOOD,1,34.0344927,-93.2513959,4,25,0,1,1
840,07,014,BLAKELY,0,34.6972007,-93.0827549,19,25,0,1,1
840,07,015,WALDRON,1,34.9704407,-94.0440279,19,25,0,1,1
840,07,016,HARRISBURG,1,35.4848667,-90.6809479,5,26,0,1,1
840,07,017,WHITTON,0,35.5182337,-90.2869869,5,26,0,1,1
840,07,018,AUGUSTA,0,35.3146747,-91.3577789,5,26,0,1,1
840,07,019,SAFFELL,1,35.9114603,-91.3426352,19,26,0,1,1
840,07,020,RUPERT,1,35.6330837,-92.7182699,19,24,0,1,1
840,07,021,STARK,1,35.5702167,-92.1956399,19,25,0,1,1
840,07,022,COAL HILL,1,35.4263985,-93.6640897,19,25,0,1,1
840,07,023,LURTON,1,35.7806777,-93.0696409,19,24,0,1,1
840,07,024,MASSARD,1,35.3514159,-94.3318236,19,25,0,1,1
840,07,025,MAYNARD,1,36.4436877,-90.9236529,5,26,0,1,1
840,07,026,ZION,1,36.0989147,-91.7354059,19,24,0,1,1
840,07,027,FULTON,1,36.4061087,-92.1148009,19,24,0,1,1
840,07,028,COMPTON,1,36.1206137,-93.2802279,19,24,0,1,1
840,07,029,AVOCA,1,36.4053037,-94.1100149,19,24,0,1,1
840,07,030,Centerton,1,36.3298020,-94.3032990,19,24,0,1,1
840,07,031,Farwell,1,36.3940770,-93.4724620,19,24,0,1,1
840,07,032,Yellville,1,36.2105620,-92.7512430,19,24,0,1,1
840,07,033,Ravenden Springs,1,36.3137630,-91.2290500,5,24,0,1,1
840,07,034,Lafe,1,36.2400190,-90.5171580,5,26,0,1,1
840,07,035,Dell,1,35.9012240,-90.0002250,5,26,0,1,1
840,07,036,Hickory Ridge,1,35.3966630,-90.9666330,5,26,0,1,1
840,07,037,Russell,1,35.3737360,-91.6580320,5,24,0,1,1
840,07,038,Marshall,1,35.9393360,-92.4423230,19,24,0,1,1
840,07,039,Havana,1,35.0750270,-93.6817900,19,25,0,1,1
840,07,040,Hatfield,1,34.4621490,-94.3053470,19,25,0,1,1
840,07,041,Sims,1,34.6594900,-93.6892660,19,25,0,1,1
840,07,042,England,1,34.5591830,-92.0017960,4,26,0,1,1
840,07,043,Gillett,1,34.1382900,-91.5739690,5,26,0,1,1
840,07,045,Lockesburg,1,33.7828480,-94.0068560,4,25,0,1,1
840,07,046,Springhill,1,33.0260920,-93.4936280,4,25,0,1,1
840,07,047,Stephens,1,33.4545720,-92.9674940,4,25,0,1,1
840,07,048,Kelso,1,33.7969070,-91.2209630,5,26,0,1,1
840,07,049,Rudy,1,35.6150950,-94.3444020,19,24,0,1,1
840,07,102,EUDORA 2,0,33.1666667,-91.3166667,5,26,0,1,1
840,07,103,PRINCETON,1,33.9394687,-92.5894309,4,25,0,1,1
840,07,109,ULM,1,34.7008083,-91.7077371,5,26,0,1,1
840,07,111,NANCE,1,34.7023815,-92.8007333,19,25,0,1,1
840,07,112,Poyen 2,1,34.3500000,-92.6333330,4,25,0,1,1
840,07,114,DRY FORK,1,34.8282537,-93.2368089,19,25,0,1,1
840,07,117,WILSON,1,35.5182227,-90.2867129,5,26,0,1,1
840,07,118,AUGUSTA 2,1,35.3146835,-91.3577331,5,26,0,1,1
840,07,900,OZARK NF,1,35.6440029,-93.2948547,19,24,0,1,3
840,07,901,MAGAZINE MTN,1,35.1599347,-93.4248279,19,25,0,1,3
840,07,902,BOSTON MTN.,1,35.6923427,-93.8210314,19,24,0,1,3
840,07,903,FOUR LAKES,0,33.6978337,-92.6142649,4,25,0,1,3
840,07,904,CROWLEY'S RIDGE,1,34.7364157,-90.6845150,5,26,0,1,3
124,11,001,CHEMAINUS,0,48.7852900,-123.5991300,94,5,0,1,1
124,11,002,PORT RENFREW,0,48.4223000,-124.0552700,94,5,0,1,1
124,11,003,BORDER ROAD,1,49.2937900,-114.7324400,64,10,0,1,1
124,11,004,TOKAY,1,49.4616100,-115.5162400,64,10,0,1,1
124,11,005,KUSKONOOK,1,49.2998000,-116.6611100,64,10,0,1,1
124,11,006,SALMO,1,49.1468100,-117.2572600,64,10,0,1,1
124,11,007,NEEDLES,1,49.7771600,-118.1402900,64,10,0,1,1
124,11,008,BEAVERDELL,1,49.4459400,-119.0782200,64,9,0,1,1
124,11,009,PRINCETON,1,49.1531900,-120.5972700,67,9,0,1,1
124,11,010,SEABIRD,1,49.2948800,-121.6884700,94,5,0,1,1
124,11,011,ALBION,0,49.1840200,-122.5347800,94,5,0,1,1
124,11,012,SUNSHINE CST,0,49.4068200,-123.5133600,94,5,0,1,1
124,11,013,ALBERNI,0,49.2615500,-124.8364300,94,5,0,1,1
124,11,014,ELSIE LAKE,0,49.4754700,-125.1879900,94,5,0,1,1
124,11,015,ELKFORD,1,50.2456000,-114.9578000,64,10,0,1,1
124,11,016,COLUMBIA LK,1,50.2392700,-115.8744900,64,10,0,1,1
124,11,017,SPILLIMACHEEN,1,50.9243500,-116.4783900,64,10,0,1,1
124,11,018,ZINCTON,1,50.0380100,-117.2057300,64,10,0,1,1
124,11,019,MABEL LAKE,1,50.4406300,-118.7433200,64,9,0,1,1
124,11,020,SALMON ARM,1,50.6737500,-119.3209500,64,9,0,1,1
124,11,021,NICOLA,0,50.2828500,-120.6916600,64,9,0,1,1
124,11,022,CANFORD,1,50.0225700,-121.0993400,64,9,0,1,1
124,11,023,SHALALTH,1,50.7898000,-122.2240700,63,9,0,1,1
124,11,026,CAMPBELL R,0,50.0263800,-125.2411100,94,5,0,1,1
124,11,027,EVE RIVER,0,50.3500000,-126.1564300,94,5,0,1,1
124,11,028,PORT HARDY,0,50.7039400,-127.8768500,94,5,0,1,1
124,11,029,GOLDEN,1,51.3218900,-116.9870700,64,10,0,1,1
124,11,030,ESPLANADE RG,0,51.5042400,-117.4169100,64,10,0,1,1
124,11,031,GOLDSTREAM R,0,51.6758900,-118.6360500,64,10,0,1,1
124,11,032,SCOTCH CREEK,1,51.0367400,-119.3906600,64,10,0,1,1
124,11,033,BRIDGE LAKE,0,51.3870400,-120.7102900,63,10,0,1,1
124,11,034,MEADOWLAKE,1,51.4131900,-121.9794400,63,10,0,1,1
124,11,036,CARDIFF MTN,1,51.5628900,-123.6974900,63,10,0,1,1
124,11,037,TATLAYOKO L,1,51.4895900,-124.3919400,63,10,0,1,1
124,11,042,GOSNELL,1,52.5264900,-119.1138400,64,10,0,1,1
124,11,043,HENDRIX LAKE,1,52.0908200,-120.7938600,64,10,0,1,1
124,11,044,KEITHLEY CR.,1,52.8975300,-121.3377300,64,10,0,1,1
124,11,045,WILLIAMS LK,1,52.1495200,-122.0676800,63,10,0,1,1
124,11,046,ALEXIS CREEK,1,52.2551000,-123.5247100,63,10,0,1,1
124,11,048,HECKMAN PASS,1,52.5102600,-125.4072300,63,10,0,1,1
124,11,049,BELLA COOLA,1,52.3875500,-126.5269600,68,5,0,1,1
124,11,053,MCBRIDE,1,53.2789500,-120.0785000,64,10,0,1,1
124,11,054,WINGDAM,1,53.0389300,-121.9812800,64,10,0,1,1
124,11,055,FERNDALE,1,53.9713700,-122.4612700,63,10,0,1,1
124,11,057,KENNEY DAM,1,53.5981100,-124.9014600,63,10,0,1,1
124,11,058,DUNSTER,1,53.0839400,-119.6714400,64,10,0,1,1
124,11,063,Heritage Hwy,1,54.9688590,-120.1108680,29,6,0,1,1
124,11,065,MCLEOD LAKE,1,54.9879700,-123.0335000,63,10,0,1,1
124,11,067,FRASER LAKE,0,54.0871500,-124.8316800,68,10,0,1,1
124,11,068,PINKUT CREEK,1,54.4132100,-125.4190900,68,10,0,1,1
124,11,069,MT MORICE,1,54.3605800,-126.7925600,68,10,0,1,1
124,11,070,SMITHERS,0,55.0022400,-127.3188300,68,10,0,1,1
124,11,071,LAKELSE,1,54.3716600,-128.5821500,94,5,0,1,1
124,11,072,KWINITSA,1,54.3330800,-129.2962200,94,5,0,1,1
124,11,074,TUPPER,1,55.4544100,-120.1584200,30,6,0,1,1
124,11,075,WILLISTON LK,1,55.4508300,-123.2083300,63,10,0,1,1
124,11,078,GERMANSEN LANDING,1,55.7995000,-124.7304700,68,10,0,1,1
124,11,079,KWANIKA CREEK,1,55.6020800,-125.1735500,68,10,0,1,1
124,11,081,KISPIOX,0,55.1583100,-127.8863000,68,5,0,1,1
124,11,082,NASS RIVER,0,55.7715300,-128.8499400,94,5,0,1,1
124,11,083,Gitwinksihlkw,1,55.2086080,-129.1346390,94,5,0,1,1
124,11,084,FT ST JOHN,0,56.3630000,-120.3997100,29,6,0,1,1
124,11,085,HUDSON HOPE,1,56.0302800,-121.9082700,29,6,0,1,1
124,11,093,MEZIADIN,1,56.1048300,-129.2843900,68,5,0,1,1
124,11,101,Saltair,1,48.7574380,-123.5985120,94,5,0,1,1
124,11,102,Fairy Lake,1,48.5820660,-124.3946240,94,5,0,1,1
124,11,106,KINASKAN LK,1,57.5021400,-130.2203500,68,4,0,1,1
124,11,110,FORT NELSON,1,58.8423600,-122.9158500,29,6,0,1,1
124,11,111,STEAMBOAT,1,58.6604600,-123.8515800,68,6,0,1,1
124,11,112,TETSA RIVER,1,58.6667800,-123.9544500,68,4,0,1,1
124,11,114,Ash River,1,49.5134930,-125.1258030,94,5,0,1,1
124,11,116,KOOTENAY,1,50.6327800,-116.0559400,64,10,0,1,1
124,11,117,GNAT PASS,1,58.1000000,-129.8633900,68,4,0,1,1
124,11,118,BEAVERFOOT,0,51.2490000,-116.6745100,64,10,0,1,1
124,11,125,PETITOT RIVER,1,59.9808900,-122.9207300,29,6,0,1,1
124,11,126,CAMPBELL LAKE,1,50.0263800,-125.2411100,94,5,0,1,1
124,11,131,Big Bend Hwy,1,51.6758900,-118.6360500,64,10,0,1,1
124,11,132,CASSIAR,1,59.2205300,-129.7417000,68,4,0,1,1
124,11,133,Eaganbridge,1,51.3870400,-120.7102900,63,10,0,1,1
124,11,134,SWAN LAKE,1,59.9413100,-131.9747900,68,4,0,1,1
124,11,136,ATLIN ROAD,1,60.0002900,-133.7949200,68,4,0,1,1
124,11,137,PENNINGTON,1,60.0017900,-134.6602600,68,4,0,1,1
124,11,139,CHILKAT PASS,0,59.4505000,-136.3618900,68,4,0,1,1
124,11,150,GOLD RIVER,1,49.6790700,-126.1172700,94,5,0,1,1
124,11,167,Ormond Lake,1,54.0871500,-124.8316800,68,10,0,1,1
124,11,175,Groundbirch,1,55.9253370,-120.9927680,29,6,0,1,1
124,11,181,Glen Vowell,1,55.1969910,-127.7463700,68,5,0,1,1
124,11,185,SUKUNKA FALLS,1,55.5776800,-121.5912000,29,10,0,1,1
124,11,198,MASSETT,1,54.0308500,-132.0565100,94,5,0,1,1
124,11,199,Rennell Sound,0,53.2505100,-132.1171200,94,5,0,1,1
124,11,200,MORESBY IS,0,53.2372500,-131.8641100,94,5,0,1,1
124,11,201,VICTORIA,1,48.4045900,-123.3495700,94,5,0,1,1
124,11,202,NITNAT,1,48.8721300,-124.8147700,94,5,0,1,1
124,11,204,WASA,0,49.6484700,-115.6497200,64,10,0,1,1
124,11,205,CRESTON,1,49.0731700,-116.5226800,64,10,0,1,1
124,11,206,SLOCAN,1,49.5085600,-117.6174200,64,10,0,1,1
124,11,207,GRAND FORKS,1,49.0416900,-118.4750400,64,10,0,1,1
124,11,208,SUMMERLAND,1,49.5976200,-119.7296300,64,9,0,1,1
124,11,209,ASHNOLA,0,49.1322000,-120.2927500,67,9,0,1,1
124,11,210,CHILLIWACK,0,49.0483400,-121.9736700,94,5,0,1,1
124,11,211,PITT MEADOWS,0,49.2311700,-122.6895100,94,5,0,1,1
124,11,212,POINT GREY,1,49.2626900,-123.2584800,94,5,0,1,1
124,11,213,SALTERY BAY,0,49.7831300,-124.1786900,94,5,0,1,1
124,11,214,WICKANINNISH,1,49.0427300,-125.6944800,94,5,0,1,1
124,11,216,CANAL FLATS,1,50.6492000,-115.8435600,64,10,0,1,1
124,11,218,GERRARD,1,50.3373200,-116.9999900,64,10,0,1,1
124,11,220,LAVINGTON,1,50.2661500,-119.0870200,64,9,0,1,1
124,11,221,PLEASANT VAL,1,50.2249700,-120.6194800,64,9,0,1,1
124,11,222,PAVILION,1,50.8809300,-121.8287300,63,9,0,1,1
124,11,223,PEMBERTON,1,50.1437900,-122.9579300,68,5,0,1,1
124,11,226,STELLA LAKE,1,50.1825900,-125.4947500,94,5,0,1,1
124,11,228,VICTORIA LK,0,50.2854300,-127.3466200,94,5,0,1,1
124,11,229,BLAEBERRY R.,1,51.4165500,-117.0009500,64,10,0,1,1
124,11,230,ILLECILEWAET,1,51.1808500,-117.7618200,64,10,0,1,1
124,11,232,ADAMS LAKE,1,51.4157600,-119.4347700,64,10,0,1,1
124,11,233,CHU CHUA,1,51.3166600,-120.1499900,64,9,0,1,1
124,11,234,LAC LA HACHE,1,51.9788500,-121.4652300,63,10,0,1,1
124,11,235,RISKE CREEK,1,51.9559200,-122.4093300,63,10,0,1,1
124,11,236,FLETCHER LAKE,1,51.7948300,-123.0701100,63,10,0,1,1
124,11,237,TATLA LAKE,1,51.9825400,-124.3681300,63,10,0,1,1
124,11,244,HORSEFLY,1,52.4733100,-121.3851800,63,10,0,1,1
124,11,245,MELDRUM CR.,1,52.1243200,-122.3496300,63,10,0,1,1
124,11,248,NIMPO LAKE,1,52.2574900,-125.0894300,63,10,0,1,1
124,11,254,SUGARBOWL MT,0,53.7339800,-121.7429700,63,10,0,1,1
124,11,255,PRINCE GEORG,1,53.9421000,-122.8157000,63,10,0,1,1
124,11,256,PUNCHAW,1,53.6535600,-122.9608400,63,10,0,1,1
124,11,265,SUMMIT LAKE,1,54.3429400,-122.6524000,63,10,0,1,1
124,11,267,CRIPPLE LAKE,1,54.5210770,-124.1020460,68,10,0,1,1
124,11,270,TELKWA HI RD,1,55.0022400,-127.3188300,68,10,0,1,1
124,11,271,KITSUMKALUM,0,54.8294100,-128.8459800,68,5,0,1,1
124,11,282,CRANBERRY,0,55.6854500,-128.7456000,94,5,0,1,1
124,11,284,Rose Prairie,1,56.5867340,-120.6356070,29,6,0,1,1
124,11,299,Port Clements,1,53.6861990,-132.1802690,94,5,0,1,1
124,11,300,Skidegate Lake,1,53.2080400,-131.7933400,94,5,0,1,1
124,11,304,Premier Lake,1,49.7242100,-115.7934200,64,10,0,1,1
124,11,309,UPPER ASHNOLA,1,49.0390600,-120.3899300,67,9,0,1,1
124,11,310,Silver Skagit Rd,1,49.0024600,-121.0632300,67,9,0,1,1
124,11,311,COQUITLAM,0,49.2441200,-122.6895200,94,5,0,1,1
124,11,313,DUCK LAKE,1,49.7831300,-124.1786900,94,5,0,1,1
124,11,326,FORT NELSON RIVER,1,59.2333600,-123.2523900,29,6,0,1,1
124,11,328,Nawhiti Lake,1,50.6806430,-127.9804110,94,5,0,1,1
124,11,332,CORMIER CREEK,1,59.9644400,-129.0694400,68,4,0,1,1
124,11,335,Dog Creek,1,51.5816960,-122.2549310,63,10,0,1,1
124,11,339,HAINES SUMMIT,1,59.7890700,-136.5956800,68,4,0,1,1
124,11,371,Kitimat,1,54.0014140,-128.7007790,94,5,0,1,1
124,11,401,SALT SPR. IS,1,48.7493200,-123.5481100,94,5,0,1,1
124,11,402,COWICHAN LK.,1,48.8230500,-124.0578300,94,5,0,1,1
124,11,407,CHRISTIAN VL,1,49.7097700,-118.7769200,64,9,0,1,1
124,11,408,OLIVER,1,49.1074100,-119.2795200,64,9,0,1,1
124,11,409,BROOKMERE,1,49.7769200,-120.8548000,64,9,0,1,1
124,11,410,CHILLIWACK LAKE,1,49.0258900,-121.3879800,67,9,0,1,1
124,11,411,Maple Ridge,1,49.1840200,-122.5347800,94,5,0,1,1
124,11,412,SQUAMISH,0,49.4744100,-123.2419500,94,5,0,1,1
124,11,413,NANAIMO RIV,1,49.1941800,-124.0990600,94,5,0,1,1
124,11,414,COMOX LAKE,0,49.6056900,-125.2546200,94,5,0,1,1
124,11,419,CREIGHTON V,1,50.2116400,-118.7717600,64,9,0,1,1
124,11,420,CANOE POINT,1,50.8158300,-119.0862900,64,9,0,1,1
124,11,422,HAT CREEK,1,50.7892700,-121.6120800,64,9,0,1,1
124,11,423,DUFFEY LAKE,1,50.4318300,-122.2563800,68,9,0,1,1
124,11,426,QUADRA IS.,1,50.0227600,-125.1604100,94,5,0,1,1
124,11,430,SUCCOUR CR.,1,51.7163700,-117.5298800,64,10,0,1,1
124,11,454,BOWRON,1,53.7339800,-121.7429700,63,10,0,1,1
124,11,510,Chaumox,1,49.8336317,-121.5719980,94,9,0,1,1
124,11,511,Skookumchuk,1,49.9287750,-122.4005260,94,5,0,1,1
124,11,513,Texada Island,1,49.5192600,-124.1469430,94,5,0,1,1
124,11,514,COURTENAY,0,49.5777800,-125.2026300,94,5,0,1,1
124,11,608,PARK RILL,1,49.2574600,-119.5261000,64,9,0,1,1
124,11,609,BROMLEY,1,49.4013300,-120.2243200,64,9,0,1,1
124,11,611,Barrowtown,1,49.1299940,-122.0290390,94,5,0,1,1
124,11,612,SQUAMISH RIVER,1,49.6866500,-123.1783300,68,5,0,1,1
124,11,613,COOMBS,1,49.2509200,-124.3572100,94,5,0,1,1
124,11,614,Mt. Washington,1,49.6424200,-125.0980700,94,5,0,1,1
124,11,621,KAMLOOPS,1,50.5745500,-120.0893800,64,9,0,1,1
124,11,622,BOTANIE VALLEY,1,50.2422300,-121.5819000,64,9,0,1,1
124,11,709,OSPREY LAKE,1,49.7202500,-120.1491800,64,9,0,1,1
124,11,711,Mud Bay,1,49.0664560,-122.9909480,94,5,0,1,1
124,11,721,LOWER NICOLA,1,50.1342500,-120.9503000,64,9,0,1,1
124,11,900,SYRINGA CR,1,49.3713400,-117.9433400,64,10,0,1,3
840,14,001,HORSE CREEK,1,41.8223332,-123.0047055,93,5,0,1,1
840,14,002,CARRVILLE,0,41.1419727,-122.5264669,66,5,0,1,1
840,14,003,NUBIEBER,1,41.1014068,-121.2571315,85,9,0,1,1
840,14,004,CRESCENT CTY,1,41.6955943,-124.1417935,93,5,0,1,1
840,14,005,HONEYDEW,1,40.2431947,-124.1233439,93,5,0,1,1
840,14,006,HOLMES,1,40.4150917,-123.9615249,93,5,0,1,1
840,14,007,RED BLUFF,1,40.3520163,-122.3059647,92,32,0,1,1
840,14,008,LASSEN PARK,0,40.4941127,-121.4255289,66,15,0,1,1
840,14,009,EAGLE LAKE,1,40.5758997,-120.6982799,85,15,0,1,1
840,14,010,CALPELLA,0,39.2648927,-123.2246019,93,32,0,1,1
840,14,011,HULLVILLE,1,39.5232837,-122.9409709,92,5,0,1,1
840,14,012,PENNINGTON,1,39.2754327,-121.7340849,91,32,0,1,1
840,14,013,WESTVILLE,1,39.1239687,-120.7596199,66,15,0,1,1
840,14,014,FISH ROCK,1,38.8035918,-123.5854569,93,5,0,1,1
840,14,015,RUMSEY,1,38.9787297,-122.2402499,92,32,0,1,1
840,14,016,RIOVISTA,1,38.0878897,-121.7519384,91,32,0,1,1
840,14,017,COTTAGE SPGS,0,38.3563447,-120.2121659,66,15,0,1,1
840,14,018,DARDANELLE,1,38.3432387,-119.8362579,66,15,0,1,1
840,14,019,COLMA,0,37.6849387,-122.4709619,92,32,0,1,1
840,14,020,COLLEGEVILLE,0,37.9248767,-121.1660539,91,32,0,1,1
840,14,021,HUGHSON,1,37.5947824,-120.8609510,91,32,0,1,1
840,14,022,BASS LAKE,1,37.3670857,-119.6302109,92,15,0,1,1
840,14,023,BIG PINE,1,37.1720925,-118.0220022,88,9,0,1,1
840,14,024,CARUTHERS,1,36.5471497,-119.8358759,91,32,0,1,1
840,14,025,TRES PINOS,0,36.7623647,-121.1750259,92,32,0,1,1
840,14,026,OILFIELDS,1,36.3127167,-120.3048859,91,32,0,1,1
840,14,027,GRAVESBORO,0,36.7712237,-119.4395069,91,32,0,1,1
840,14,028,YOKOHL VAL,1,36.2677648,-118.9924775,92,32,0,1,1
840,14,029,UBEHEBE,1,36.7126677,-117.5737919,80,33,0,1,1
840,14,030,HAIWEE RES,1,36.1558717,-117.8859479,80,33,0,1,1
840,14,031,WILDROSE,1,36.5381747,-117.2138369,80,33,0,1,1
840,14,032,PARKFIELD,1,35.8086777,-120.5305939,92,32,0,1,1
840,14,033,BAKERSFIELD,1,35.1800607,-119.1639019,91,32,0,1,1
840,14,034,ONYX,1,35.7335697,-118.0780029,90,33,0,1,1
840,14,035,CALIF CITY,1,35.0877907,-117.9172289,83,33,0,1,1
840,14,036,GOLDSTONE,0,35.3017657,-116.9158549,83,33,0,1,1
840,14,037,VALLEY WELLS,1,35.4737220,-115.7029053,83,33,0,1,1
840,14,038,SANTA YNEZ,1,34.4663227,-120.0690309,92,32,0,1,1
840,14,039,FOSTER PARK,0,34.3571317,-119.3142549,92,32,0,1,1
840,14,040,WILLOW SPGS,0,34.8404587,-118.5635609,83,33,0,1,1
840,14,041,BARSTOW,1,34.6236297,-117.0048749,83,33,0,1,1
840,14,042,MT PINOS,0,34.8339497,-119.3320309,95,32,0,1,1
840,14,043,CADIZ,1,34.5108617,-115.4898379,82,33,0,1,1
840,14,044,PARKER DAM,1,34.2888977,-114.1414869,82,33,0,1,1
840,14,045,HARBOR LAKE,0,33.7909207,-118.2918089,90,32,0,1,1
840,14,046,MORENO,1,33.9285177,-117.1214679,90,32,0,1,1
840,14,047,OAK GROVE,1,33.3988807,-116.8011859,90,32,0,1,1
840,14,048,GLAMIS,1,33.0446677,-115.1445009,82,33,0,1,1
840,14,049,PALO VERDE,1,33.4048617,-114.7292329,82,33,0,1,1
840,14,050,SAN YSIDRO,1,32.5434577,-117.1190639,90,32,0,1,1
840,14,051,ANZA BORREGO,1,32.9039540,-116.2327200,90,33,0,1,1
840,14,052,HOLLISTER,0,36.8242987,-121.2813029,92,32,0,1,1
840,14,053,COALINGA,1,36.2251687,-120.5194684,92,32,0,1,1
840,14,054,ORANGE COVE,1,36.6315997,-119.3047559,92,32,0,1,1
840,14,055,LAKE SUCCESS,1,36.0801334,-118.8985706,92,32,0,1,1
840,14,056,DARWIN,1,36.3180973,-117.6717296,80,33,0,1,1
840,14,057,MORRO BAY,1,35.2565319,-120.8880009,92,32,0,1,1
840,14,058,EUREKA VAL,1,37.2267497,-117.7611699,80,33,0,1,1
840,14,059,INYOKERN,1,35.6076917,-117.8001970,83,33,0,1,1
840,14,060,LENWOOD,0,34.8508216,-117.1469807,83,33,0,1,1
840,14,061,LANE MTN,0,35.0263717,-116.9615329,83,33,0,1,1
840,14,062,IVANPAH,1,35.5408027,-115.4289179,83,33,0,1,1
840,14,063,TRONA,1,35.8180322,-117.3420440,83,33,0,1,1
840,14,064,TECOPA,1,35.8040435,-116.1930811,83,33,0,1,1
840,14,065,SODA LAKE,1,35.1091439,-116.1438409,83,33,0,1,1
840,14,066,BIG BEAR,0,34.3333857,-116.8289569,95,32,0,1,1
840,14,067,ESSEX,1,34.7336313,-115.2438758,83,33,0,1,1
840,14,068,FLYNN,1,34.9755274,-115.6467441,83,33,0,1,1
840,14,069,IRON MTNS,1,34.0883297,-115.1040949,82,33,0,1,1
840,14,070,COACHELLA CN,0,33.4529856,-115.7137562,82,33,0,1,1
840,14,071,POINT REYES,1,38.0453507,-122.8668979,93,32,0,1,1
840,14,072,AUBURN,0,38.8992737,-121.0703359,92,32,0,1,1
840,14,073,INGALLS,1,41.6796987,-120.7128219,85,9,0,1,1
840,14,074,MARTINS FY,1,41.2017931,-123.8016231,93,5,0,1,1
840,14,075,RIO DELL,1,40.5280727,-124.1636509,93,5,0,1,1
840,14,076,RAVENDALE,1,40.7999549,-120.3646258,89,9,0,1,1
840,14,077,SHASTA LAKE,1,40.8737513,-122.2919583,92,5,0,1,1
840,14,078,JOHNSVILLE,1,39.7846537,-120.6326679,66,15,0,1,1
840,14,079,COHASSET,1,39.9935292,-121.7044240,92,32,0,1,1
840,14,080,ORLAND,1,39.7633427,-122.2390059,91,32,0,1,1
840,14,081,NAVARRO,1,39.1612277,-123.5822599,93,5,0,1,1
840,14,082,WOODFORDS,1,38.7754607,-119.8237379,66,15,0,1,1
840,14,083,FAIRFAX,1,37.9851247,-122.5909499,93,32,0,1,1
840,14,084,BENTON,1,37.8002217,-118.5296169,88,9,0,1,1
840,14,085,LUCERNE VAL,1,34.4584537,-116.9455029,83,33,0,1,1
840,14,086,HAVASU LAKE,1,34.4912299,-114.4066433,82,33,0,1,1
840,14,087,NEEDLES,0,34.9000000,-114.6666667,83,33,0,1,1
840,14,088,COTTONWOOD,1,33.6738577,-115.8016279,82,33,0,1,1
840,14,089,NILAND,1,33.2200507,-115.4847789,82,33,0,1,1
840,14,090,BLYTHE,1,33.6171807,-114.6230009,82,33,0,1,1
840,14,091,POWAY,0,32.9696237,-117.0157469,90,32,0,1,1
840,14,092,ALAMO RIVER,1,32.8471607,-115.4338989,82,33,0,1,1
840,14,093,IMPERIAL DAM,0,32.8818917,-114.4726339,82,33,0,1,1
840,14,094,FT IRWIN,1,34.9995167,-116.9363639,83,33,0,1,1
840,14,095,LUMBERYARD,1,38.5562592,-120.2906994,66,15,0,1,1
840,14,096,BODIE,1,38.1752167,-119.1943049,88,9,0,1,1
840,14,097,ONO,1,40.5164906,-122.3819302,92,32,0,1,1
840,14,098,FOLSOM,1,38.7202247,-121.0356899,92,32,0,1,1
840,14,099,S CATALINA,1,33.3657387,-118.3742829,90,32,0,1,1
840,14,100,BRADSHAW TRAIL,1,33.3785930,-115.6933620,82,33,0,1,1
840,14,103,SAWMILL MTN,1,34.5675322,-118.5572900,92,32,0,1,1
840,14,104,TUJUNGA,1,34.2581397,-118.1049598,95,32,0,1,1
840,14,105,EL TORO,1,33.6408199,-117.5790920,90,32,0,1,1
840,14,106,MESA GRANDE,1,33.1990869,-116.7862853,90,32,0,1,1
840,14,107,LAKE HEMET,1,33.6681143,-116.6706725,95,32,0,1,1
840,14,108,CARMEL VAL,1,36.4530827,-121.6956939,92,32,0,1,1
840,14,109,CIMA,1,35.1743817,-115.4116059,83,33,0,1,1
840,14,110,GREENHORN MT,1,35.7786557,-118.5699849,92,15,0,1,1
840,14,111,VALYERMO,1,34.3863889,-117.6905500,95,32,0,1,1
840,14,112,PEARBLOSSOM,1,34.5208799,-117.9406162,90,33,0,1,1
840,14,113,FALLSVALE,0,34.0813937,-116.8928069,95,32,0,1,1
840,14,114,SISQUOC,1,34.7375727,-120.2354279,92,32,0,1,1
840,14,116,LONE PINE,1,36.5074727,-118.0989909,80,33,0,1,1
840,14,117,SILVER CITY,1,36.4664267,-118.6547779,92,32,0,1,1
840,14,118,LOCKWOOD VAL,1,34.7383427,-119.0450209,95,32,0,1,1
840,14,119,ELSINORE MTN,1,33.6484217,-117.4101409,90,32,0,1,1
840,14,120,CP PENDLETON,0,33.2380367,-117.3928679,90,32,0,1,1
840,14,121,MT LAGUNA,0,32.8906327,-116.4718019,92,32,0,1,1
840,14,122,CUYAMACA PK,1,32.9845324,-116.6771527,92,32,0,1,1
840,14,123,ADELAIDA,1,35.6378262,-120.8547697,92,32,0,1,1
840,14,124,DEATH VALLEY,1,36.4373087,-116.8511739,80,33,0,1,1
840,14,125,MARICOPA,1,35.0586291,-119.3492988,91,32,0,1,1
840,14,126,ANZA,0,33.5004607,-116.7989429,90,32,0,1,1
840,14,127,SANGER,1,36.6992615,-119.5118359,91,32,0,1,1
840,14,128,KELSO VALLEY,1,35.5494581,-118.2071003,92,32,0,1,1
840,14,129,MT BALDY,1,34.1748887,-117.6766129,92,32,0,1,1
840,14,130,GREEN VALLEY,1,34.2452557,-117.0639579,95,32,0,1,1
840,14,131,JOSHUA TREE,0,34.0138414,-116.1626236,83,33,0,1,1
840,14,132,KINGS CANYON,1,36.8189424,-118.9088976,92,15,0,1,1
840,14,133,ELIZABETH LK,1,34.6685951,-118.3953543,92,32,0,1,1
840,14,134,VENTUCOPA,1,34.8187907,-119.5569949,90,32,0,1,1
840,14,135,SANTA CRUZ I,0,33.9981167,-119.5768969,90,32,0,1,1
840,14,136,LAKE CACHUMA,1,34.6739607,-119.6685329,92,32,0,1,1
840,14,137,JACUMBA,1,32.6119997,-116.2002339,90,32,0,1,1
840,14,138,CRESTON,1,35.3183817,-120.5084609,92,32,0,1,1
840,14,139,GREENWATER V,1,36.0509851,-116.5004177,80,33,0,1,1
840,14,140,CARRIZO PLN,1,35.0931687,-119.7298739,91,32,0,1,1
840,14,141,WHITE RIVER,0,35.8163067,-118.8450999,92,15,0,1,1
840,14,142,MT PINOS 2,1,34.8339402,-119.3299456,95,32,0,1,1
840,14,145,SHAFTER,0,35.4417537,-119.2871779,91,32,0,1,1
840,14,147,ARVIN,1,35.2233697,-118.8782429,91,32,0,1,1
840,14,148,GLENN,1,39.5508277,-122.0649918,91,32,0,1,1
840,14,149,ATWATER,1,37.2442817,-120.6701509,91,32,0,1,1
840,14,150,BRAWLEY,1,32.9416587,-115.5356439,82,33,0,1,1
840,14,151,LIKELY,1,41.2351468,-120.3368295,85,9,0,1,1
840,14,152,CORDOVA,0,38.4960307,-121.4588469,91,32,0,1,1
840,14,153,GOLD HILL,1,38.7687607,-120.9253159,92,32,0,1,1
840,14,154,CROWLEY LAKE,1,37.6375765,-118.6550657,88,9,0,1,1
840,14,155,WESTLEY,1,37.5141365,-121.1597352,91,32,0,1,1
840,14,156,TUOLUMNE GROVE,1,37.7472667,-119.8035199,66,15,0,1,1
840,14,157,JACKSON,0,38.3755147,-120.6668929,92,32,0,1,1
840,14,158,SATTLEY,1,39.6153759,-120.4258218,85,15,0,1,1
840,14,159,OROVILLE,1,39.4978958,-121.6093062,91,32,0,1,1
840,14,160,LONGVALE,1,39.5664857,-123.3982919,93,5,0,1,1
840,14,161,TEHAMA,1,40.3357087,-121.9157259,92,32,0,1,1
840,14,162,HONEY LAKE,1,40.4932903,-120.1080006,89,9,0,1,1
840,14,163,REDDING,0,40.6724857,-122.3224869,92,32,0,1,1
840,14,164,JUNCTION CTY,1,40.6589377,-123.0337989,93,5,0,1,1
840,14,165,DAVIS CREEK,1,41.7332787,-120.3753129,85,9,0,1,1
840,14,166,DORRIS,1,41.9998861,-121.8916067,85,9,0,1,1
840,14,167,ORLEANS,0,41.3028427,-123.5376359,93,5,0,1,1
840,14,168,MACDOEL,1,41.8224004,-122.0111142,85,9,0,1,1
840,14,169,MCCLOUD,1,41.2323207,-122.1355519,85,5,0,1,1
840,14,170,BRIDGEPORT,0,38.2592757,-119.2218859,88,9,0,1,1
840,14,171,TRANQUILLITY,1,36.6541134,-120.2610649,91,32,0,1,1
840,14,172,MORAGA,1,37.8183531,-122.1464708,92,32,0,1,1
840,14,173,LOCKWOOD,1,35.9222607,-121.0644229,92,32,0,1,1
840,14,174,OFFIELD MTN,1,41.3813232,-123.4877394,66,5,0,1,1
840,14,175,MT SHASTA,1,41.4000979,-122.0499734,85,5,0,1,1
840,14,176,CLEAR LK RES,1,41.8190067,-121.0692617,85,9,0,1,1
840,14,177,CEDARVILLE,1,41.5295757,-120.1718519,89,9,0,1,1
840,14,178,ALDERPOINT,1,40.1732694,-123.6037721,93,5,0,1,1
840,14,179,YOLLA BOLLY,1,40.0279597,-122.6387259,92,32,0,1,1
840,14,180,BUTTE MEADOW,1,40.1173377,-121.5755009,66,15,0,1,1
840,14,181,GENESEE,1,40.2017613,-120.6235020,66,15,0,1,1
840,14,182,LAYTONVILLE,1,39.6878368,-123.4848920,93,5,0,1,1
840,14,183,BARTLETT SPS,1,39.1844218,-122.7090796,92,32,0,1,1
840,14,184,HIGGINS CORN,1,39.0686937,-121.0099559,92,15,0,1,1
840,14,185,DOWNIEVILLE,1,39.5602197,-120.8280109,66,15,0,1,1
840,14,186,MARK WEST,1,38.5498734,-122.7193030,92,32,0,1,1
840,14,187,ZAMORA,1,38.7939347,-121.8400349,91,32,0,1,1
840,14,188,RIVERTON,1,38.7694117,-120.4473869,66,15,0,1,1
840,14,189,COYOTE,1,37.2521703,-121.6774341,92,32,0,1,1
840,14,190,COPPEROPOLIS,1,37.9834939,-120.6452578,92,32,0,1,1
840,14,191,ONEALS,1,37.1201217,-119.7013699,92,32,0,1,1
840,14,192,DEEP SPRINGS,1,37.4158007,-118.0043109,88,9,0,1,1
840,14,193,BODEGA BAY,1,38.3407717,-123.0480649,93,5,0,1,1
840,14,194,WATERMAN GAP,1,37.2115267,-122.1565019,93,32,0,1,1
840,14,195,GREENFIELD,1,36.2573930,-121.4234494,92,32,0,1,1
840,14,196,ORA LOMA,1,36.8794687,-120.7850119,91,32,0,1,1
840,14,197,TIPTON,1,36.0799797,-119.3040849,91,32,0,1,1
840,14,198,YREKA,1,41.7401687,-122.6334149,85,5,0,1,1
840,14,199,BARTLE,1,41.2528113,-121.8238479,85,9,0,1,1
840,14,200,KORBEL,1,40.9701495,-123.8400894,93,5,0,1,1
840,14,201,HAT CREEK,1,40.8188497,-121.5700369,66,15,0,1,1
840,14,202,GLEN ELLEN,0,38.3795127,-122.5143889,92,32,0,1,1
840,14,203,LIVERMORE,0,37.6650327,-121.7328649,91,32,0,1,1
840,14,204,ATHLONE,1,37.1416897,-120.4009629,91,32,0,1,1
840,14,205,LAKESHORE,1,37.2556212,-119.1614638,66,15,0,1,1
840,14,210,UKIAH,1,39.1634647,-123.2270969,93,5,0,1,1
840,14,213,TAHOE NF,0,39.0226767,-120.8100579,66,15,0,1,1
840,14,220,JOFEGAN,1,33.3068648,-117.3421420,90,32,0,1,1
840,14,221,CLEVELAND NF,1,32.9240800,-116.4804700,92,32,0,1,1
840,14,225,TRES PINOS 2,1,36.7497605,-121.1582986,92,32,0,1,1
840,14,226,ANZA 2,1,33.5014318,-116.7979649,90,32,0,1,1
840,14,231,JOSHUA TREE 2,1,34.0138414,-116.1626200,83,33,0,1,1
840,14,235,SANTA CRUZ 2,0,34.0000000,-119.6833300,90,32,0,1,1
840,14,240,WILLOW SPRINGS 2,1,34.9710730,-118.1487420,83,33,0,1,1
840,14,245,BUENA VISTA,1,35.4779437,-119.2962109,91,32,0,1,1
840,14,252,Hollister 2,1,36.8242987,-121.2813000,92,32,0,1,1
840,14,260,LENWOOD 2,1,34.8364310,-117.1675900,83,33,0,1,1
840,14,267,ORLEANS 2,1,41.3090130,-123.5322900,93,5,0,1,1
840,14,302,GLEN ELLEN 2,1,38.3796305,-122.5109615,92,32,0,1,1
840,14,303,TRACY,0,37.6649984,-121.7329536,91,32,0,1,1
840,14,308,CHAOS CRATER,1,40.4976057,-121.4282989,66,15,0,1,1
840,14,313,ANGELUS OAKS,1,34.0809816,-116.8865694,95,32,0,1,1
840,14,319,PESCADERO,1,37.1650627,-122.2276839,93,32,0,1,1
840,14,320,COLLEGEVILLE 2,1,37.9333136,-121.1662987,91,32,0,1,1
840,14,341,CAL HOT SPGS,1,35.8908900,-118.8500400,92,32,0,1,1
840,14,345,Harbor Lake 2,1,33.7909207,-118.2918000,90,32,0,1,1
840,14,352,STATEN IS.,1,38.1231944,-121.5250760,91,32,0,1,1
840,14,357,POLOMA,1,38.3539344,-120.6797897,92,32,0,1,1
840,14,366,WOODLANDS,1,34.2881427,-116.7674109,95,32,0,1,1
840,14,401,HIOUCHI,1,41.8020549,-124.0540137,93,5,0,1,1
840,14,402,LONESOME RDG,1,41.3035057,-123.5321729,93,5,0,1,1
840,14,403,WHISKEYTOWN,1,41.0054247,-122.6175379,66,5,0,1,1
840,14,404,DIRIGIO,1,41.1491686,-122.3173197,66,5,0,1,1
840,14,405,HACKAMORE,1,41.6091794,-121.0502480,85,9,0,1,1
840,14,406,TIONESTA,1,41.6708967,-121.2574609,85,9,0,1,1
840,14,407,CROWDER FLAT,1,41.8699632,-120.5011538,85,9,0,1,1
840,14,408,MADELINE,1,41.0534621,-120.4745547,85,9,0,1,1
840,14,409,BURNT RANCH,1,40.8031297,-123.4827189,93,5,0,1,1
840,14,410,FRENCH GULCH,1,40.7168927,-122.6362459,66,5,0,1,1
840,14,411,TOMHEAD,1,40.1803227,-122.8597869,92,32,0,1,1
840,14,412,FALL RIVER MILLS,1,40.9620837,-121.5788419,66,9,0,1,1
840,14,413,CHESTER,1,40.3052152,-121.1430890,66,15,0,1,1
840,14,414,GOUMAZ,1,40.4392679,-120.8358171,85,15,0,1,1
840,14,415,PAXTON,1,40.0402279,-120.9961818,66,15,0,1,1
840,14,416,MEADOW VALLEY,1,39.9493657,-121.0380629,66,15,0,1,1
840,14,417,LITTLE TRUCKEE,1,39.5112797,-120.1772919,66,15,0,1,1
840,14,418,FOREST HILL,1,39.0192397,-120.8263239,66,15,0,1,1
840,14,419,POLLOCK PINES,1,38.7396833,-120.5734077,66,15,0,1,1
840,14,420,PLACERVILLE,1,38.7995807,-120.7242129,92,15,0,1,1
840,14,421,COULTERVILLE,1,37.7104224,-120.1968622,92,15,0,1,1
840,14,422,WAWONA,1,37.4618753,-119.7938035,92,15,0,1,1
840,14,423,PINE MOUNTAIN,1,36.0105997,-118.1213609,66,15,0,1,1
840,14,424,KERNVILLE,1,35.7945597,-118.4486699,92,15,0,1,1
840,14,425,SOUTH LAKE,1,35.6923897,-118.2905419,92,32,0,1,1
840,14,426,CRESTVIEW,1,37.7767800,-119.0168752,88,9,0,1,1
840,14,427,ALAMAR,1,34.7072417,-119.6177289,90,32,0,1,1
840,14,428,BIG FLAT,1,41.7045577,-123.8982699,93,5,0,1,1
840,14,429,CECILVILLE,1,41.0822737,-123.0816729,66,5,0,1,1
840,14,430,MEDICINE MTN.,1,41.5341140,-121.5843400,85,9,0,1,1
840,14,431,HAY FORK,1,40.4903837,-123.0732879,93,5,0,1,1
840,14,432,HOUGH SPRINGS,0,39.1628167,-122.6130599,92,32,0,1,1
840,14,433,CHILCOOT,1,39.7978141,-120.1394030,85,15,0,1,1
840,14,434,STRAWBERRY,1,38.1700196,-120.0376959,66,15,0,1,1
840,14,435,FRIDAY RIDGE,1,40.8879703,-123.6046832,93,5,0,1,1
840,14,436,LAST CHANCE,1,40.1541637,-120.5453404,66,15,0,1,1
840,14,437,Stonyford,1,39.3825860,-122.5519030,92,32,0,1,1
840,14,503,Tracy 2,1,37.6651240,-121.7328400,91,32,0,1,1
840,14,518,FOREST HILL 2,0,39.0696100,-120.5676100,66,15,0,1,1
840,14,536,SQUAW VALLEY,0,40.1538157,-120.5457839,66,15,0,1,1
840,14,900,IRON GATE,1,41.9024247,-122.5631179,85,9,0,1,3
840,14,901,GAZELLE,1,41.5209207,-122.5202179,85,5,0,1,3
840,14,902,SHIP MTN.,1,41.8824344,-123.8192961,93,5,0,1,3
840,14,903,PILOT CREEK,0,40.6229877,-123.6395269,93,5,0,1,3
840,14,905,FRIDAY RIDGE,0,40.7015167,-123.7020419,93,5,0,1,3
840,14,907,CHOLLA GARD.,1,33.9250177,-115.9269019,82,33,0,1,3
840,14,908,REDWOOD N.P.,0,41.2623507,-124.0971118,93,5,0,1,3
840,14,909,SAN BENITO MTN.,0,36.3579209,-120.7791086,92,32,0,1,3
840,14,918,Redwood N.P. 2,0,41.4661900,-124.0398000,93,5,0,1,3
840,14,953,SOUTH FORK MTN,1,40.6229877,-123.6395269,93,5,0,1,3
840,17,001,MAYBELL,1,40.7402199,-108.0883263,86,10,0,1,1
840,17,002,GREAT DIVIDE,1,40.8403233,-107.6901017,86,10,0,1,1
840,17,003,YAMPA,1,40.1531859,-106.8749180,84,16,0,1,1
840,17,004,HARMONY,1,40.5090827,-105.0392299,87,16,0,1,1
840,17,005,BRIGGSDALE,1,40.5963537,-104.2027819,36,18,0,1,1
840,17,006,PINNEO,1,40.2096396,-103.4402580,36,18,0,1,1
840,17,007,FLEMING,1,40.6569477,-102.9337159,36,18,0,1,1
840,17,008,DOUGLAS PASS,1,39.4003427,-108.8123629,84,16,0,1,1
840,17,009,BUFORD,1,39.9658907,-107.6483229,84,16,0,1,1
840,17,010,ASPEN,1,39.2438073,-106.7610657,62,16,0,1,1
840,17,011,CHEESMAN LK,1,39.2209796,-105.2791994,62,16,0,1,1
840,17,012,KIOWA,1,39.3798417,-104.3691567,87,18,0,1,1
840,17,013,LAST CHANCE,1,39.8568857,-103.6493769,36,18,0,1,1
840,17,014,ABARR,1,39.8307687,-102.6325909,36,18,0,1,1
840,17,015,DELTA,1,38.6947890,-108.1390507,84,16,0,1,1
840,17,016,COLONA,0,38.3057846,-107.9633117,62,16,0,1,1
840,17,017,PARLIN,1,38.5137277,-106.7550729,62,16,0,1,1
840,17,018,MOFFAT,1,38.0256780,-105.8127155,87,16,0,1,1
840,17,019,RUSH,1,38.8398807,-104.0920409,36,18,0,1,1
840,17,020,BOYERO,1,38.6410567,-103.2279359,36,18,0,1,1
840,17,021,LAMAR,1,38.1437717,-102.5212329,36,18,0,1,1
840,17,022,DOLORES,0,37.5181967,-108.5355759,84,16,0,1,1
840,17,023,FALFA,1,37.2149507,-107.7918089,84,16,0,1,1
840,17,024,PAGOSA SPGS,0,37.2877307,-106.8369449,62,16,0,1,1
840,17,025,BLANCA,0,37.2873497,-105.5524979,87,16,0,1,1
840,17,026,MICA BUTTE,0,37.6204777,-104.3145749,87,18,0,1,1
840,17,027,GILPIN,1,37.9979687,-103.1977919,36,18,0,1,1
840,17,028,TWO BUTTES,1,37.6879837,-102.2921829,36,18,0,1,1
840,17,031,WRAY GULCH,1,40.0653006,-108.4153871,84,16,0,1,1
840,17,032,WILSON CREEK,1,40.1380256,-107.9697719,84,10,0,1,1
840,17,033,WALDEN,1,40.8796847,-106.4591899,86,16,0,1,1
840,17,034,LOST LAKE,1,40.8716166,-105.9079302,62,16,0,1,1
840,17,035,HUDSON,1,40.3052417,-104.6963429,36,18,0,1,1
840,17,036,WILDHORSE L,1,40.8478437,-103.3439259,36,18,0,1,1
840,17,037,WAVERLY,1,40.2631147,-102.7182079,36,18,0,1,1
840,17,038,FRUITA,0,39.1643935,-108.7012441,87,16,0,1,1
840,17,039,WILLOW PEAK,1,39.6640362,-107.1232134,62,16,0,1,1
840,17,040,RED CLIFF,1,39.5442667,-106.2206124,62,16,0,1,1
840,17,041,TARRYALL,1,39.0800627,-105.4160009,62,16,0,1,1
840,17,042,ADAMS CO.,1,39.8407587,-104.1886679,36,18,0,1,1
840,17,043,GORDON CREEK,1,39.6105587,-103.1230999,36,18,0,1,1
840,17,044,BETHUNE,1,39.3883077,-102.4274519,36,18,0,1,1
840,17,045,UNCOMPAHGRE,1,38.7397289,-108.6236220,62,16,0,1,1
840,17,046,CASTLETON,1,38.5920517,-106.9174979,62,16,0,1,1
840,17,047,DOYLEVILLE,1,38.5112521,-106.5542061,62,16,0,1,1
840,17,048,GUFFEY,1,38.9828110,-105.5746738,62,16,0,1,1
840,17,049,EDISON,1,38.6945177,-104.0715939,36,18,0,1,1
840,17,050,CROWLEY,1,38.1746667,-103.9489359,36,18,0,1,1
840,17,051,CHEYENNE,1,38.6933497,-102.5906749,36,18,0,1,1
840,17,052,DOLORES RIV,1,37.7907487,-108.0204389,62,16,0,1,1
840,17,053,LAKE CITY,0,37.9857447,-107.2239599,62,16,0,1,1
840,17,054,PINOS CREEK,0,37.4798557,-106.4522789,62,16,0,1,1
840,17,055,ALAMOSA,1,37.1810849,-105.7459646,87,16,0,1,1
840,17,056,TRINCHERA,1,37.0446817,-104.0585169,87,18,0,1,1
840,17,057,VILLEGREEN,1,37.2182707,-103.5204699,87,18,0,1,1
840,17,058,CAMPO,1,37.1052137,-102.5796589,36,18,0,1,1
840,17,116,COLONA 2,1,38.3057846,-107.9633110,62,16,0,1,1
840,17,122,CORTEZ,0,37.5166544,-108.4645163,84,16,0,1,1
840,17,124,BLACKHEAD PK,1,37.2881745,-106.8377022,62,16,0,1,1
840,17,125,SAN LUIS,1,37.2872957,-105.5525819,87,16,0,1,1
840,17,126,CONE MTN,1,37.6256667,-104.3100659,87,18,0,1,1
840,17,138,Rosevale,1,39.0521056,-108.5755774,84,16,0,1,1
840,17,153,RIO GRNDS RS,1,37.7792747,-107.0036239,62,16,0,1,1
840,17,154,SUMMITVILLE,1,37.6329865,-106.4250933,62,16,0,1,1
840,17,201,BROWNS PARK,1,40.6165527,-108.6736679,84,10,0,1,1
840,17,202,DUNCKLEY PAS,1,40.2101727,-107.0331404,62,16,0,1,1
840,17,203,BUFFALO PARK,1,40.1331937,-106.4907839,62,16,0,1,1
840,17,204,DEADMAN RD.,1,40.7597487,-105.4722069,62,16,0,1,1
840,17,205,GROVER,1,40.8566157,-104.5420149,36,18,0,1,1
840,17,206,STONEHAM,1,40.5807997,-103.6580889,36,18,0,1,1
840,17,207,AMHERST,1,40.6141447,-102.0845649,36,18,0,1,1
840,17,208,DE BEQUE,1,39.5130367,-108.4622799,84,16,0,1,1
840,17,209,FLATTOPS,1,39.6468148,-107.6169662,62,16,0,1,1
840,17,210,THOMASVILLE,1,39.3789927,-106.8135989,62,16,0,1,1
840,17,211,GUANELLA PAS,1,39.6666667,-105.8500000,62,16,0,1,1
840,17,212,PROSPECT VAL,0,39.9859827,-104.5104139,36,18,0,1,1
840,17,213,LIMON,1,39.3739850,-103.7867237,36,18,0,1,1
840,17,214,KIRK,1,39.5341427,-102.5923459,36,18,0,1,1
840,17,215,PINON,1,38.2657408,-108.3489798,62,16,0,1,1
840,17,216,PAONIA,1,38.8387837,-107.6025079,84,16,0,1,1
840,17,217,TINCUP,1,38.7474207,-106.4305419,62,16,0,1,1
840,17,218,WET MTNS.,1,38.3674037,-105.2290729,62,16,0,1,1
840,17,219,DOYLE BRIDGE,0,38.0452637,-104.4505009,36,18,0,1,1
840,17,220,HASWELL,1,38.1719747,-103.2345199,36,18,0,1,1
840,17,221,NEEGRANDE,1,38.2958688,-102.7381166,36,18,0,1,1
840,17,222,GROUNDHOG RS,1,37.7801857,-108.0888449,62,16,0,1,1
840,17,223,PIEDRA,1,37.2329382,-107.1836240,62,16,0,1,1
840,17,224,FOX CREEK,1,37.0593545,-106.1915747,62,16,0,1,1
840,17,225,MOSCA,1,37.6909727,-105.9279050,87,16,0,1,1
840,17,226,COKEDALE,1,37.1141597,-104.6052929,84,16,0,1,1
840,17,227,NINAVIEW,1,37.5201847,-103.1112899,87,18,0,1,1
840,17,228,EDLER,1,37.1640087,-102.2766499,36,18,0,1,1
840,17,253,Lake City 2,1,37.9409230,-107.1588900,62,16,0,1,1
840,17,301,DINOSAUR,1,40.2777657,-108.5596319,84,16,0,1,1
840,17,302,LAY,1,40.6681037,-107.8616029,86,10,0,1,1
840,17,303,STEAMBOAT L.,1,40.6746076,-106.9331855,62,16,0,1,1
840,17,304,COMANCHE PK,1,40.5692247,-105.4284449,62,16,0,1,1
840,17,305,NUNN,1,40.8627005,-104.6390073,36,18,0,1,1
840,17,306,FORT MORGAN,1,40.3492697,-103.7997669,36,18,0,1,1
840,17,307,JULESBURG,1,40.9679121,-102.3257889,36,18,0,1,1
840,17,308,BAXTER PASS,1,39.4433277,-108.9548949,84,16,0,1,1
840,17,309,RAGGED MTN.,1,39.0799673,-107.3678337,62,16,0,1,1
840,17,310,WESTON PASS,0,39.1529607,-106.4087149,62,16,0,1,1
840,17,311,COMO,1,39.4106807,-105.9687199,62,16,0,1,1
840,17,312,BENNETT,1,39.7238537,-104.3773535,36,18,0,1,1
840,17,313,FLAGLER,1,39.5675297,-103.0237419,36,18,0,1,1
840,17,314,BURLINGTON,1,39.1718637,-102.1105579,36,18,0,1,1
840,17,315,BASIN,1,38.0687767,-108.4608309,87,16,0,1,1
840,17,316,POWDERHORN,1,38.4648048,-107.2632899,62,16,0,1,1
840,17,317,MARSHALL PAS,1,38.4480577,-106.1069649,62,16,0,1,1
840,17,318,GRIBBLES PRK,1,38.6441327,-105.7794649,62,16,0,1,1
840,17,319,ELLICOTT,1,38.5495769,-104.4588733,36,18,0,1,1
840,17,320,KARVAL,1,38.7624107,-103.3489149,36,18,0,1,1
840,17,321,SHERIDAN LAK,1,38.2460697,-102.2107619,36,18,0,1,1
840,17,322,MCPHEE RES.,1,37.8399527,-108.7610769,84,16,0,1,1
840,17,323,ANIMAS,0,37.2370827,-107.8701319,84,16,0,1,1
840,17,324,SOUTH FORK,1,37.6490053,-106.6533167,62,16,0,1,1
840,17,325,ANTONITO,0,37.0987057,-105.5208509,87,16,0,1,1
840,17,326,WALSENBURG,1,37.6176717,-104.7749029,84,16,0,1,1
840,17,327,TIMPAS,1,37.9511700,-103.8764488,36,18,0,1,1
840,17,328,PRITCHETT,1,37.2067937,-102.8682559,36,18,0,1,1
840,17,351,ANGORA,1,40.2044442,-108.7539818,84,16,0,1,1
840,17,352,YELLOWJACKET PASS,1,40.0522652,-107.8736167,84,16,0,1,1
840,17,353,STILLWATER PASS,0,40.3126093,-105.9787229,62,16,0,1,1
840,17,354,GOLD HILL,1,40.0205912,-105.2961672,62,16,0,1,1
840,17,358,PICEANCE BASIN,0,39.8228687,-108.1651539,84,16,0,1,1
840,17,359,RIFLE FALLS,1,39.7578337,-107.6922689,84,16,0,1,1
840,17,360,RADIUM,0,39.9539677,-106.5583499,62,16,0,1,1
840,17,361,ROLLINS PASS,1,39.8235192,-105.5238079,62,16,0,1,1
840,17,362,ELBERT,1,38.9999639,-104.7380455,87,18,0,1,1
840,17,365,NUCLA,1,38.2700861,-108.5366804,62,16,0,1,1
840,17,366,OWL CREEK PASS,1,38.1738367,-107.7416909,62,16,0,1,1
840,17,367,COCHETOPA PASS,1,38.0540197,-106.8645557,62,16,0,1,1
840,17,368,WESTCLIFFE,1,38.1502227,-105.5137559,62,16,0,1,1
840,17,372,HAYCAMP MESA,1,37.4432477,-108.4743579,62,16,0,1,1
840,17,373,LIZARD HEAD PASS,1,37.9427007,-107.8223959,62,16,0,1,1
840,17,374,MOON PASS,1,37.8392179,-106.2560823,62,16,0,1,1
840,17,375,GARDNER,1,37.9410936,-105.2323880,84,16,0,1,1
840,17,376,LUDLOW,1,37.3389499,-104.5848671,84,16,0,1,1
840,17,377,BLACK SULPHUR CR,1,39.8717490,-108.2849910,84,16,0,1,1
840,17,378,MCCOY,1,39.8776700,-106.4640220,62,16,0,1,1
840,17,410,WESTON PASS 2,1,39.1305537,-106.1788927,62,16,0,1,1
840,17,412,PROSPECT VALLEY 2,1,39.9848652,-104.5086695,36,18,0,1,1
840,17,419,DOYLE BRIDGE 2,1,38.0641056,-104.4189177,36,18,0,1,1
840,17,422,Cortez 2,1,37.5166544,-108.4645100,84,16,0,1,1
840,17,423,ANIMAS 2,1,37.2314334,-107.8695551,84,16,0,1,1
840,17,425,MESITA,1,37.0988956,-105.5210119,87,16,0,1,1
840,17,453,Stillwater Pass 2,1,40.1799280,-106.0081200,62,16,0,1,1
840,17,900,ARSENAL,1,39.8130827,-104.7986289,36,18,0,1,3
840,17,901,ROCKPORT,1,40.8120627,-104.7912219,36,18,0,1,3
840,17,902,MOUNT EVANS,1,39.6848088,-105.3722224,62,16,0,1,3
840,17,903,MESAVERDE NP,1,37.2704067,-108.4824304,84,16,0,1,3
840,17,904,TRAIL RIDGE ROAD,1,40.4319964,-105.7630014,62,16,0,1,3
840,18,001,MYSTIC,1,41.3360007,-71.9642159,12,30,0,1,1
840,18,002,E HARTLAND,0,41.6976407,-72.9096309,12,30,0,1,1
840,18,003,BUCKINGHAM,1,41.7026037,-72.5159969,12,30,0,1,1
840,18,004,UNCASVILLE,1,41.4177280,-72.1530946,12,30,0,1,1
840,18,005,WOODSTOCK,0,41.9407577,-72.1389149,12,30,0,1,1
840,18,006,WESTBROOK,1,41.2710807,-72.4984279,12,30,0,1,1
840,18,007,WILLIMANTIC,1,41.7771877,-72.1354049,12,30,0,1,1
840,18,008,NO WOODBURY,1,41.5493443,-73.2167392,12,30,0,1,1
840,18,009,SHERMAN,1,41.5387127,-73.5009399,12,28,0,1,1
840,18,010,GREENWICH,1,41.0517897,-73.6169339,12,30,0,1,1
840,18,011,DANBURY,1,41.3362789,-73.5313225,12,30,0,1,1
840,18,012,WARREN,0,41.7487967,-73.3502269,12,30,0,1,1
840,18,013,LONG HILL,1,41.2521947,-73.2470699,12,30,0,1,1
840,18,014,MID HADDAM,1,41.5651229,-72.5906625,12,30,0,1,1
840,18,015,SOUTHINGTON,1,41.5832977,-72.8512329,12,30,0,1,1
840,18,016,NEW HARTFORD,0,41.8784917,-72.9574329,12,14,0,1,1
840,18,102,NEW HARTFORD,1,41.7378788,-72.9270422,12,14,0,1,1
840,18,105,WOODSTOCK 2,1,41.9407577,-72.1389149,12,30,0,1,1
840,18,112,WARREN 2,1,41.7487967,-73.3502260,12,30,0,1,1
840,18,116,GRANBY,1,41.8805267,-72.9557559,12,30,0,1,1
840,21,001,MT PLEASANT,1,39.5003037,-75.6860679,4,30,0,1,1
840,21,002,WILMINGTON,1,39.7518831,-75.5873207,4,30,0,1,1
840,21,003,HARRINGTON,1,38.9594417,-75.5366119,4,30,0,1,1
840,21,004,FREDERICA,1,39.0287137,-75.4652999,4,30,0,1,1
840,21,005,DOVER,0,39.0295357,-75.4593569,4,30,0,1,1
840,21,006,FRANKFORD,1,38.5337387,-75.1803229,4,30,0,1,1
840,21,007,HOLLEYVILLE,0,38.6735427,-75.2351089,4,30,0,1,1
840,21,008,LOWES XRDS,0,38.5040567,-75.4329779,4,30,0,1,1
840,21,009,BETHANY BCH,0,38.5804577,-75.0612969,4,30,0,1,1
840,21,010,MILTON,1,38.7480537,-75.2899489,4,30,0,1,1
840,21,105,BLACKBIRD,1,39.3705837,-75.6392639,4,30,0,1,1
840,21,107,HOLLEYVILLE 2,1,38.6736346,-75.2351111,4,30,0,1,1
840,21,108,PEPPERBOX,1,38.5040677,-75.4329919,4,30,0,1,1
840,21,109,GEORGETOWN,1,38.7324037,-75.4638509,4,30,0,1,1
840,21,900,Test Route X,0,39.0295357,-75.4593560,4,30,0,1,1
840,21,901,Test Route Y,0,39.0295357,-75.4593560,4,30,0,1,1
840,21,921,Test Route Z,0,39.0295357,-75.4593560,4,30,0,1,1
840,25,001,OAK GROVE,1,30.9291812,-87.4079434,4,27,0,1,1
840,25,002,FT WALTN BCH,1,30.3755433,-86.2758321,3,27,0,1,1
840,25,003,MOSSY HEAD,1,30.5193157,-86.4809129,3,27,0,1,1
840,25,004,BLOUNTSTOWN,1,30.5288404,-85.1334541,3,27,0,1,1
840,25,005,BROAD BRANCH,1,30.3372497,-85.2869789,3,27,0,1,1
840,25,006,MICCOSUKEE,1,30.5950194,-84.0413094,4,27,0,1,1
840,25,007,SEMINOLE HLS,0,30.3898527,-85.9004499,3,27,0,1,1
840,25,008,TELOGIA,0,30.3358457,-84.9914239,3,27,0,1,1
840,25,009,PORT ST JOE,0,29.7818335,-85.3003555,3,27,0,1,1
840,25,010,COVINGTON,1,30.2734632,-83.8569684,3,27,0,1,1
840,25,011,STEINHATCHEE,1,29.6686989,-83.3782062,3,27,0,1,1
840,25,012,BELMONT,1,30.5026237,-82.7337409,3,27,0,1,1
840,25,013,MICANOPY,0,29.5468457,-82.2630299,3,31,0,1,1
840,25,014,ROMEO,1,29.1916199,-82.3948020,3,31,0,1,1
840,25,015,FT GADSDEN,1,29.9877641,-84.9762879,3,27,0,1,1
840,25,016,DALE MABRY,0,28.0363157,-82.5050049,2,31,0,1,1
840,25,017,MYAKKA HEAD,0,27.4438745,-82.1186659,2,31,0,1,1
840,25,018,ST AUGUSTINE,1,29.8899427,-81.3438119,3,31,0,1,1
840,25,019,HILLIARD,1,30.7202649,-81.9062085,3,27,0,1,1
840,25,020,SAN ANTONIO,1,28.3266818,-82.3022052,2,31,0,1,1
840,25,021,BELMORE,1,29.8970697,-81.8343049,3,31,0,1,1
840,25,022,POLK CITY,1,28.1788407,-81.8605659,2,31,0,1,1
840,25,023,MABEL,0,28.5723877,-81.9816829,2,31,0,1,1
840,25,024,CHILDS,1,27.3232866,-81.4189503,2,31,0,1,1
840,25,025,SCOTTSMOOR,1,28.7481187,-80.8712309,2,31,0,1,1
840,25,026,SUNNILAND GR,1,26.2943143,-81.4485610,2,31,0,1,1
840,25,027,FT LONESOME,1,27.6610372,-82.1462286,2,31,0,1,1
840,25,028,PINECREST,1,25.7510497,-80.9676799,2,31,0,1,1
840,25,029,ALTURAS,0,27.9009147,-81.7191149,2,31,0,1,1
840,25,030,KENANSVILLE,1,27.9626301,-80.9673345,2,31,0,1,1
840,25,031,INDIANTOWN,1,26.9657323,-80.3854635,2,31,0,1,1
840,25,032,SALVISTA,0,26.7792597,-81.9372109,2,31,0,1,1
840,25,033,BROWARD,0,26.0628347,-80.4312659,1,31,0,1,1
840,25,035,TAMIAMI,0,25.6579667,-80.7663639,1,31,0,1,1
840,25,036,PLANTATION K,0,25.0015697,-80.5364609,1,31,0,1,1
840,25,037,SANDERSON,1,30.2531989,-82.1623546,3,27,0,1,1
840,25,038,DOCTOR INLET,0,30.0999027,-81.8070759,3,27,0,1,1
840,25,039,BOCA RATON,0,26.3678027,-80.2032849,2,31,0,1,1
840,25,040,ANDYTOWN,0,26.0594807,-80.4340449,1,31,0,1,1
840,25,051,SANTA ROSA,0,30.3334747,-87.1400909,3,27,0,1,1
840,25,052,BLACKWATER,1,30.7209289,-86.7860494,3,27,0,1,1
840,25,053,DEFUNIAK SPR,1,30.7184797,-86.1160696,3,27,0,1,1
840,25,054,BETTS,1,30.5335474,-85.2426415,3,27,0,1,1
840,25,055,MILLER XRDS,1,30.9498107,-85.7419899,4,27,0,1,1
840,25,056,HIXTOWN SWMP,1,30.2929508,-83.6676053,3,27,0,1,1
840,25,057,BLOXHAM,1,30.3876980,-84.6639032,3,27,0,1,1
840,25,058,DOWLING PARK,1,30.3506092,-83.3399191,3,27,0,1,1
840,25,059,HILDRETH,0,30.0205957,-82.8111550,3,27,0,1,1
840,25,060,CALLAHAN,1,30.5196049,-81.9519897,3,27,0,1,1
840,25,061,PINETTA,1,30.5193097,-83.2158819,3,27,0,1,1
840,25,062,ALLIGATOR PT,1,29.9468226,-84.3409430,3,27,0,1,1
840,25,063,FT MCCOY,1,29.5359317,-81.8774959,3,31,0,1,1
840,25,064,DEANVILLE,1,29.4080424,-81.1983453,2,31,0,1,1
840,25,065,FLEMINGTON,0,29.1174077,-82.2183149,3,31,0,1,1
840,25,066,NOBLETON,1,28.6471072,-82.1719367,2,31,0,1,1
840,25,067,PENNYWASH CR,1,28.1011187,-80.8980039,2,31,0,1,1
840,25,068,WINTER GARDN,1,28.6901383,-81.5469756,2,31,0,1,1
840,25,069,KISSIMMEE,1,28.3225489,-81.3372759,2,31,0,1,1
840,25,070,PLEASANT GR,0,27.7698971,-82.3349393,2,31,0,1,1
840,25,071,SANDY,1,27.2920427,-82.0563269,2,31,0,1,1
840,25,072,GARDNER,0,27.4266407,-81.5833199,2,31,0,1,1
840,25,073,ARBUCKLE,1,27.7611546,-81.4536353,2,31,0,1,1
840,25,074,ST LUCIE,1,27.2364427,-80.5471555,2,31,0,1,1
840,25,075,SEBASTIAN,0,27.8600237,-80.4486919,2,31,0,1,1
840,25,076,SHAWANO,0,26.3358707,-80.5359109,1,31,0,1,1
840,25,077,DAVIE,1,26.0856265,-80.2292965,1,31,0,1,1
840,25,078,KENDALL,0,25.6040397,-80.4097679,1,31,0,1,1
840,25,079,HOMESTEAD,1,25.4912637,-80.5425082,1,31,0,1,1
840,25,080,KEY LARGO,0,25.3839437,-80.3715899,1,31,0,1,1
840,25,081,DEVILS GARDN,1,26.5587549,-81.1267110,2,31,0,1,1
840,25,082,PALMDALE,1,26.8751997,-81.3585199,2,31,0,1,1
840,25,083,KEY WEST,0,24.6730127,-81.2450339,1,31,0,1,1
840,25,084,CROSS CITY,1,29.6862263,-83.0674784,3,27,0,1,1
840,25,085,ARIPEKA,1,28.2764097,-82.6352619,2,31,0,1,1
840,25,086,ALVA,1,26.9459847,-81.7610009,2,31,0,1,1
840,25,087,WEAVER STN,1,25.9322682,-81.6570333,1,31,0,1,1
840,25,088,CLEWISTON,1,26.7503280,-80.9020320,1,31,0,1,1
840,25,105,NIXON,0,30.3715757,-85.2717359,3,27,0,1,1
840,25,107,NEW HOPE,0,30.5368500,-85.8364830,3,27,0,1,1
840,25,108,BRISTOL,1,30.3242578,-85.0052085,3,27,0,1,1
840,25,109,PORT ST JOE 2,1,29.7818335,-85.3003555,3,27,0,1,1
840,25,113,ISLAND GROVE,1,29.4553574,-82.1190940,3,31,0,1,1
840,25,116,CITRUS PARK,1,28.0402277,-82.5089729,2,31,0,1,1
840,25,117,Myakka Head 2,1,27.4438745,-82.1186650,2,31,0,1,1
840,25,123,Mabel 2,1,28.5723877,-81.9816820,2,31,0,1,1
840,25,129,LAKE BUFFUM,1,27.9007144,-81.7191254,2,31,0,1,1
840,25,132,PUNTA GORDA,1,26.9297114,-82.0333415,2,31,0,1,1
840,25,135,FLAMINGO,1,25.1388716,-80.9335333,1,31,0,1,1
840,25,137,GLEN ST. MARY,0,30.2516797,-82.1626039,3,27,0,1,1
840,25,138,Doctors Inlet 2,1,30.0999167,-81.8069170,3,27,0,1,1
840,25,151,Laurel Hill,1,30.9656940,-86.4554860,3,27,0,1,1
840,25,159,Hildreth 2,1,30.0189180,-82.8108720,3,27,0,1,1
840,25,165,MT. OLIVE,1,29.1871917,-82.2851269,3,31,0,1,1
840,25,170,Pleasant Grove 2,1,27.7699290,-82.3349360,2,31,0,1,1
840,25,172,CREWSVILLE,1,27.4972377,-81.6004029,2,31,0,1,1
840,25,175,VERO BEACH,1,27.8610752,-80.4489977,2,31,0,1,1
840,25,176,SHAWANO 2,0,26.6850447,-80.3893099,1,31,0,1,1
840,25,178,REDLANDS,1,25.6189890,-80.4147339,1,31,0,1,1
840,25,180,CARD SOUND,1,25.3099469,-80.3928389,1,31,0,1,1
840,25,183,SUGARLOAF KEY,0,24.6759747,-81.2399969,1,31,0,1,1
840,25,207,SEMINOLE HILLS 2,1,30.8137132,-85.7800540,3,27,0,1,1
840,25,283,SUGARLOAF KEY 2,1,24.5977030,-81.5829559,1,31,0,1,1
840,25,901,APALACHICOLA,1,30.2634445,-84.6552242,3,27,0,1,3
840,25,902,OSCEOLA,1,30.3790152,-82.3594866,3,27,0,1,3
840,25,903,OCALA,1,29.3967527,-81.8082819,2,31,0,1,3
840,25,904,LOVEDALE,1,30.9635097,-85.1179618,4,27,0,1,3
840,25,905,CROOM,1,28.5817572,-82.1873953,2,31,0,1,3
840,25,906,GREEN SWAMP,1,28.3029119,-81.9184945,2,31,0,1,3
840,25,907,PINELANDS,1,25.4058076,-80.6136693,1,31,0,1,3
840,25,908,Citrus,1,28.7995277,-82.3809340,2,31,0,1,3
840,25,909,Goethe,1,29.0970600,-82.5826000,3,31,0,1,3
840,25,910,WEBB,1,26.8177916,-81.9247336,2,31,0,1,3
840,25,911,CORBETT,1,26.8544437,-80.2678139,2,31,0,1,3
840,25,912,HOLEY LAND,1,26.3353906,-80.5399018,1,31,0,1,3
840,25,913,BABCOCK RNCH,0,26.8333333,-81.6833333,2,31,0,1,3
840,25,915,MERRITT ISL,0,28.7856862,-80.8008275,2,31,0,1,3
840,25,916,RIDGE HARBOR,1,26.9950167,-81.9587398,2,31,0,1,3
840,25,917,OLUSTEE,1,30.2200916,-82.4080153,3,27,0,1,3
840,25,918,WILDERNES PK,1,28.5692767,-80.9969329,3,31,0,1,3
840,25,919,DUPUIS W.E.A,1,26.9941297,-80.5737674,2,31,0,1,3
840,25,920,EGLIN A.F.B.,1,30.4264141,-86.7556245,3,27,0,1,3
840,25,921,ST VINCENT I,1,29.6796829,-85.2152920,3,27,0,1,3
840,25,922,CHASSAHOWITZ,1,28.6793707,-82.5663679,2,31,0,1,3
840,25,923,SANTA ROSA GUIS,0,30.3308940,-87.2953680,3,27,0,1,3
840,25,925,MERRITT ISLAND 2,0,28.7856862,-80.8008270,2,31,0,1,3
840,27,001,HARRIETTS BL,1,30.8733817,-81.5755079,3,27,0,1,1
840,27,002,OKEFENOKEE,0,30.7054907,-82.0685039,3,27,0,1,1
840,27,003,DARIEN,1,31.3641465,-81.4181496,3,27,0,1,1
840,27,004,STOCKTON,1,30.9276387,-83.0293039,3,27,0,1,1
840,27,005,BAXLEY,1,31.9696201,-82.3558447,4,27,0,1,1
840,27,006,FOWLSTOWN,1,30.8199147,-84.5234609,4,27,0,1,1
840,27,007,FITZGERALD,1,31.7059705,-83.2438622,4,27,0,1,1
840,27,008,EVERETT CITY,1,31.3917301,-81.6431740,3,27,0,1,1
840,27,009,COURTHOUSE,1,31.8866376,-84.9734875,4,27,0,1,1
840,27,010,CUTHBERT,1,31.7456477,-84.7198949,4,27,0,1,1
840,27,011,GUYTON,0,32.3437127,-81.3595879,3,27,0,1,1
840,27,012,LYONS,0,32.1082297,-82.3706809,4,27,0,1,1
840,27,013,WRIGHTSVILLE,1,32.7366314,-82.7652865,4,27,0,1,1
840,27,014,HAWKINSVILLE,1,32.3986852,-83.4524425,4,27,0,1,1
840,27,015,FORSYTH,1,33.0058447,-83.9907256,11,29,0,1,1
840,27,016,CREST,1,32.9365857,-84.4948117,11,29,0,1,1
840,27,017,WAYCROSS,0,31.1987087,-82.2305739,3,27,0,1,1
840,27,018,NASHVILLE,1,31.2120310,-83.2572724,4,27,0,1,1
840,27,019,LINCOLNTON,1,33.7890197,-82.4803579,11,29,0,1,1
840,27,020,MAXEYS,1,33.7540376,-83.1735057,11,29,0,1,1
840,27,021,NEWTON,1,31.2906127,-84.4058069,4,27,0,1,1
840,27,022,HOLLONVILLE,0,33.1819087,-84.4813689,11,29,0,1,1
840,27,023,FAIRPLAY,0,33.6355697,-84.8850949,11,29,0,1,1
840,27,024,ATHENS,1,34.0324127,-83.3156813,11,29,0,1,1
840,27,025,COTTON,1,31.1234736,-84.0731922,4,27,0,1,1
840,27,026,OAKMAN,1,34.5664150,-84.7282157,13,28,0,1,1
840,27,027,CARTERSVILLE,1,34.0545254,-84.7868559,11,28,0,1,1
840,27,028,HENDERSON,1,32.3776397,-83.7887419,4,27,0,1,1
840,27,029,DOLES,1,31.6113295,-83.9135034,4,27,0,1,1
840,27,030,BALDWIN,1,34.4948364,-83.5415723,11,29,0,1,1
840,27,031,SILOAM,1,33.5197045,-83.0957341,11,29,0,1,1
840,27,032,GROVETOWN,1,33.4876538,-82.1997128,11,29,0,1,1
840,27,033,LACROSS,1,32.1823297,-84.2682799,4,27,0,1,1
840,27,034,JACKSONBORO,1,32.8829954,-81.6377660,4,27,0,1,1
840,27,035,MACON,1,32.9464727,-83.6478349,4,27,0,1,1
840,27,036,BOWDON,1,33.5381995,-85.2533567,11,29,0,1,1
840,27,037,LINWOOD,1,34.6689717,-85.3463759,13,28,0,1,1
840,27,038,TAZEWELL,1,32.3152912,-84.5636584,4,27,0,1,1
840,27,039,SHANNON,1,34.3863104,-85.0490155,13,28,0,1,1
840,27,040,BAXTER,1,34.7642707,-84.0687099,23,28,0,1,1
840,27,041,MOUNTAIN CTY,1,34.9172777,-83.4074789,23,28,0,1,1
840,27,042,HOLLY SPRS,0,34.1391517,-84.4635319,11,29,0,1,1
840,27,043,HIRAM,1,33.9086267,-84.7482209,11,29,0,1,1
840,27,044,STOCKBRIDGE,1,33.6307147,-84.2188269,11,29,0,1,1
840,27,045,RUTLEDGE,1,33.6101913,-83.6041811,11,29,0,1,1
840,27,046,JULIETTE,1,33.1053145,-83.8122125,11,29,0,1,1
840,27,047,WASHINGTON,1,33.6477247,-82.6759719,11,29,0,1,1
840,27,048,DEEPSTEP,1,33.0291229,-82.8309704,4,27,0,1,1
840,27,049,FINLEYSON,1,32.1468537,-83.5781559,4,27,0,1,1
840,27,050,RENTZ,1,32.1747043,-82.9529801,4,27,0,1,1
840,27,051,WADLEY,1,32.8899700,-82.3672037,4,27,0,1,1
840,27,052,PITTS,1,31.9142657,-83.5531469,4,27,0,1,1
840,27,053,WORKMORE,1,31.9354092,-82.9391858,4,27,0,1,1
840,27,054,DOVER,1,32.6493901,-81.6930981,4,27,0,1,1
840,27,055,DOUGLAS,0,31.4573017,-82.8019089,4,27,0,1,1
840,27,056,KELLER,0,31.7655427,-81.2461699,3,27,0,1,1
840,27,057,BOSTON,1,30.6653217,-83.8011200,4,27,0,1,1
840,27,058,NEEDMORE,0,30.6013017,-82.7066959,3,27,0,1,1
840,27,102,FOLKSTON,1,30.7412280,-82.0713150,3,27,0,1,1
840,27,111,PINEORA,1,32.3293007,-81.4255139,3,27,0,1,1
840,27,112,VIDALIA,1,32.1084995,-82.3713072,4,27,0,1,1
840,27,117,WARE CO,1,31.1988887,-82.2302919,3,27,0,1,1
840,27,119,METASVILLE,0,33.7283627,-82.5666869,11,29,0,1,1
840,27,122,HOLLONVILLE 2,1,33.1817632,-84.4810583,11,29,0,1,1
840,27,123,WHITESBURG,1,33.6361338,-84.8855164,11,29,0,1,1
840,27,142,SUTALLEE,1,34.2229334,-84.6178662,11,29,0,1,1
840,27,155,COFFEE CO,1,31.4577244,-82.8023609,4,27,0,1,1
840,27,156,RICEBORO,1,31.6168883,-81.6271416,3,27,0,1,1
840,27,158,TARVER,1,30.6012759,-82.7068280,3,27,0,1,1
840,27,301,WOODBINE,1,30.9289420,-81.6718980,3,27,0,1,1
840,27,302,COUNCIL,1,30.5849500,-82.4694190,3,27,0,1,1
840,27,303,HEADLIGHT,1,30.8156483,-82.7110995,3,27,0,1,1
840,27,304,BIG OAK,1,31.0603940,-81.9385286,3,27,0,1,1
840,27,305,COLONELS ISLAND,1,31.7275586,-81.2589304,3,27,0,1,1
840,27,306,GLENMORE,1,31.1219928,-82.8050351,3,27,0,1,1
840,27,307,THORNTON ROAD,1,31.6994191,-82.4003766,4,27,0,1,1
840,27,308,UNION,1,32.4826257,-82.0547405,4,27,0,1,1
840,27,309,MILLEN,1,32.6387756,-81.8440915,4,27,0,1,1
840,27,310,WHITE HILL,1,32.6981698,-81.4772544,4,27,0,1,1
840,27,311,OUSLEY,1,30.7949952,-83.4309121,3,27,0,1,1
840,27,312,SHILOH,1,30.9398503,-83.4081100,4,27,0,1,1
840,27,313,WEBER,1,31.2372355,-83.1398269,4,27,0,1,1
840,27,314,OWENSBORO,1,31.9115930,-83.3946338,4,27,0,1,1
840,27,315,MINTER TWEED,1,32.4529818,-82.7571502,4,27,0,1,1
840,27,316,BETHANY,1,30.8576446,-84.7241329,4,27,0,1,1
840,27,317,PHILEMA,1,31.7538576,-84.0168649,4,27,0,1,1
840,27,318,DICKEY,1,31.5573574,-84.6581734,4,27,0,1,1
840,27,319,BARGES,1,31.9559887,-84.6928996,4,27,0,1,1
840,27,320,Irwinton,1,32.8012820,-83.0293010,4,27,0,1,1
840,27,321,LAKEVIEW,1,32.5465719,-83.7460488,4,27,0,1,1
840,27,322,ROLAND,1,32.8593849,-84.4158115,11,29,0,1,1
840,27,323,CARRS STATION,1,33.1701743,-83.1199010,11,29,0,1,1
840,27,324,SHARON,1,33.4815769,-82.7634571,11,29,0,1,1
840,27,325,CURRY HILL,1,33.8799945,-82.5535440,11,29,0,1,1
840,27,326,GOOD HOPE,1,33.6804525,-83.7041676,11,29,0,1,1
840,27,327,SUNNY SIDE,1,33.3820020,-84.2837106,11,29,0,1,1
840,27,328,KITE LAKE,1,33.5364364,-84.4592036,11,29,0,1,1
840,27,329,YATES CROSSROADS,1,33.4037868,-85.2537310,11,29,0,1,1
840,27,330,STONEY POINT,0,33.6511789,-85.2195466,11,29,0,1,1
840,27,331,CANDLER,1,34.1726911,-83.8381378,11,29,0,1,1
840,27,332,ROCK BRANCH,1,34.1982791,-82.7559864,11,29,0,1,1
840,27,333,HEBRON,1,34.3932407,-83.1032176,11,29,0,1,1
840,27,334,WOODSTOCK,1,34.0921282,-84.6150591,11,29,0,1,1
840,27,335,PLEASANT HILL,1,34.9062610,-84.5124264,23,28,0,1,1
840,27,336,AMOS MILL,1,34.6117851,-85.4975650,13,28,0,1,1
840,27,337,DAVIS CROSSROADS,1,34.7223756,-85.4241020,13,28,0,1,1
840,27,430,STONEY POINT 2,1,33.6511789,-85.2195466,11,29,0,1,1
840,27,900,PIEDMONT NWR,1,33.0951823,-83.7086974,11,29,0,1,3
840,33,001,NAPLES,1,48.5817917,-116.3974909,64,10,0,1,1
840,33,002,MIVODEN,1,47.7825805,-116.6672685,64,10,0,1,1
840,33,003,AVERY,1,47.2505272,-115.8109268,64,10,0,1,1
840,33,004,GIFFORD,1,46.4532553,-116.5560346,65,9,0,1,1
840,33,005,NEZPERCE,1,46.0761181,-115.4122168,64,10,0,1,1
840,33,006,LOLO PASS,1,46.6398230,-114.5424783,64,10,0,1,1
840,33,007,GRANGEVILLE,1,45.8813157,-116.1124649,64,10,0,1,1
840,33,008,GOLDEN,1,45.8118141,-115.6810610,64,10,0,1,1
840,33,009,DEEP CREEK,0,45.7000000,-114.6333333,64,10,0,1,1
840,33,010,BAKER,1,45.0341095,-113.5624829,65,9,0,1,1
840,33,011,CASCADE,0,44.5814347,-116.0405729,65,10,0,1,1
840,33,012,CAPE HORN,1,44.4572034,-115.0979702,64,10,0,1,1
840,33,013,CHALLIS,1,44.6127281,-114.1743245,65,10,0,1,1
840,33,014,LEADORE,1,44.7223590,-113.5203605,65,9,0,1,1
840,33,015,DUBOIS,1,44.2384571,-112.2561867,89,9,0,1,1
840,33,016,SQUIRREL,1,44.0271337,-111.2586979,65,9,0,1,1
840,33,017,BLACKS CREEK,1,43.4553410,-116.0962005,89,9,0,1,1
840,33,018,CENTERVILLE,1,43.7258179,-115.9510940,64,10,0,1,1
840,33,019,ALTURAS,0,43.8977317,-114.9073789,64,10,0,1,1
840,33,020,CRATERS,1,43.4619319,-113.5630006,89,9,0,1,1
840,33,021,SPRINGFIELD,1,43.1104288,-112.7317982,89,9,0,1,1
840,33,022,RIRIE,1,43.5343116,-111.7010272,89,9,0,1,1
840,33,023,TRIANGLE,1,42.8131415,-116.6394012,89,9,0,1,1
840,33,024,GLENNS FERRY,0,42.9094597,-115.1851959,89,9,0,1,1
840,33,025,MAGIC MTN,1,42.3311564,-114.2794532,88,9,0,1,1
840,33,026,ACEQUIA,1,42.6770234,-113.5890998,89,9,0,1,1
840,33,027,POCATELLO,1,42.8548166,-112.5193880,88,9,0,1,1
840,33,028,HENRY,0,42.9309637,-111.5524589,88,9,0,1,1
840,33,029,COOLIN,1,48.4797897,-116.8492509,64,10,0,1,1
840,33,030,Baldy Mountain,1,45.8162850,-115.4726060,64,10,0,1,1
840,33,109,NEZPERCE NF,0,45.8257420,-115.4359342,64,10,0,1,1
840,33,111,CABARTON,1,44.4138961,-116.0315611,65,10,0,1,1
840,33,119,SAWTOOTH CTY,0,43.9110934,-114.8761118,64,10,0,1,1
840,33,124,PASADENA VAL,1,42.9539220,-115.2124573,89,9,0,1,1
840,33,128,BLACKFT RES,1,42.9613154,-111.7185508,89,9,0,1,1
840,33,202,MARBLE CREEK,1,47.2502840,-116.0228279,64,10,0,1,1
840,33,204,JOEL,1,46.4470219,-116.8391482,65,9,0,1,1
840,33,205,PIERCE,1,46.4724742,-115.7969686,64,10,0,1,1
840,33,207,SALMON RIVER,1,45.3898886,-116.0342990,64,10,0,1,1
840,33,208,BURGDORF,1,45.3420792,-115.9475939,64,10,0,1,1
840,33,209,COBALT,1,45.0778394,-114.0119991,64,10,0,1,1
840,33,211,CRANE CREEK,1,44.1957002,-116.5087254,89,10,0,1,1
840,33,212,YELLOW PINE,1,44.9600847,-115.4933479,64,10,0,1,1
840,33,213,SUNBEAM,1,44.2711977,-114.7338639,64,10,0,1,1
840,33,214,IRON SPRINGS,1,44.2330004,-113.3704824,65,9,0,1,1
840,33,217,SILVER CITY,1,43.1584349,-116.5088281,89,9,0,1,1
840,33,218,FEATHERVILLE,1,43.4135132,-115.3610245,64,10,0,1,1
840,33,219,PICABO,1,43.4007821,-114.2522640,89,9,0,1,1
840,33,220,CAREY,1,43.3387265,-113.8743621,89,9,0,1,1
840,33,221,MUD LAKE,1,43.8124267,-112.3960119,89,9,0,1,1
840,33,222,BATES,1,43.8248162,-111.2006106,65,9,0,1,1
840,33,223,DOUGAL RES,1,42.6439302,-116.9936762,89,9,0,1,1
840,33,224,HOT SPRING,1,42.7918728,-115.7179519,89,9,0,1,1
840,33,225,CEDAR HILL,1,42.4316850,-114.0888322,89,9,0,1,1
840,33,226,ALMO,1,42.2100017,-113.8402099,88,9,0,1,1
840,33,227,DANIELS RES,1,42.4988307,-112.3918149,88,9,0,1,1
840,33,228,PRESTON,1,42.0021387,-111.9538098,88,9,0,1,1
840,33,319,SAWTOOTH CITY 2,1,43.9110934,-114.8761110,64,10,0,1,1
840,33,901,TWIN BUTTES,1,43.5215970,-112.6503600,89,9,0,1,3
840,33,902,LOST RIVER,1,43.5493493,-113.0094549,89,9,0,1,3
840,33,903,KYLE CANYON,1,43.7431920,-112.8423869,89,9,0,1,3
840,33,904,CIRCULAR BU,1,43.5602019,-112.8721588,89,9,0,1,3
840,33,905,TRACTOR FLAT,1,43.5492585,-112.6369200,89,9,0,1,3
840,33,906,N FORK CDA R,1,47.8844941,-116.1318742,64,10,0,1,3
840,33,907,ROCHAT DIVDE,1,47.5466971,-116.3312759,64,10,0,1,3
840,34,001,GUILFORD,1,42.2101956,-90.0603721,17,23,0,1,1
840,34,002,MILL CREEK,1,42.1593177,-89.3321502,32,22,0,1,1
840,34,003,HOLCOMB,1,42.0711057,-89.0756312,32,22,0,1,1
840,34,004,CHERRY VAL,0,42.1810097,-88.9789839,16,23,0,1,1
840,34,005,BARRINGTON,0,42.1542181,-88.1753350,16,22,0,1,1
840,34,006,ITASCA,1,42.0160676,-87.9087020,16,22,0,1,1
840,34,007,ATKINSON,1,41.3974197,-90.0300702,32,22,0,1,1
840,34,008,GENESEO,1,41.4846401,-90.2173250,32,22,0,1,1
840,34,009,PUTNAM,1,41.1849333,-89.4568609,32,22,0,1,1
840,34,010,SHEFFIELD,1,41.3504896,-89.7704347,32,22,0,1,1
840,34,011,BUDA,1,41.3356226,-89.7085965,32,22,0,1,1
840,34,012,COMPTON,1,41.6502254,-89.0175725,31,22,0,1,1
840,34,013,STREATOR,1,41.0834818,-88.8325718,31,22,0,1,1
840,34,014,WAYNE,1,41.9335847,-88.1879809,31,22,0,1,1
840,34,015,ESSEX,1,41.1663407,-88.1852819,31,22,0,1,1
840,34,016,NEWARK,1,41.5307220,-88.5743214,31,22,0,1,1
840,34,017,SHERBURNVILL,1,41.2187664,-87.5816027,16,22,0,1,1
840,34,018,NEW LENOX,1,41.4686591,-87.9645990,16,22,0,1,1
840,34,019,GULFPORT,1,40.8036571,-91.0568488,32,22,0,1,1
840,34,020,STILLWELL,1,40.2137205,-91.1829978,31,22,0,1,1
840,34,021,CHANDLERVILL,1,40.0810774,-90.0013197,31,22,0,1,1
840,34,022,TERRE HAUTE,1,40.6514497,-90.9814019,32,22,0,1,1
840,34,023,WILLIAMSFLD,1,40.9170762,-90.0331516,32,22,0,1,1
840,34,024,CAMERON,1,40.8602881,-90.5087794,32,22,0,1,1
840,34,025,BARTONVILLE,1,40.6004653,-89.6657014,31,22,0,1,1
840,34,026,MONICA,1,40.9305488,-89.7938841,32,22,0,1,1
840,34,027,DEER CREEK,1,40.6045464,-89.3175167,31,22,0,1,1
840,34,028,MACKINAW,1,40.4972564,-89.4243639,31,22,0,1,1
840,34,029,MINONK,1,40.9275498,-88.9506900,31,22,0,1,1
840,34,030,MONTICELLO,1,40.0787817,-88.5584799,31,22,0,1,1
840,34,031,FAIRBURY,1,40.7143846,-88.5637682,31,22,0,1,1
840,34,032,PONTIAC,1,40.8985328,-88.6754284,31,22,0,1,1
840,34,033,DAILEY,1,40.2509834,-87.9675978,31,22,0,1,1
840,34,034,MILFORD,1,40.6463646,-87.7246040,31,22,0,1,1
840,34,035,MELROSE,0,39.9203767,-91.2963699,31,22,0,1,1
840,34,036,BLUFF SPGS,1,39.9897988,-90.3451209,31,22,0,1,1
840,34,037,ATHENSVILLE,1,39.4187241,-90.1660041,31,22,0,1,1
840,34,038,CONCORD,1,39.7995770,-90.4109104,31,22,0,1,1
840,34,039,BELLEVIEW,1,39.3609974,-90.8395322,31,22,0,1,1
840,34,040,PAWNEE,1,39.5753678,-89.5158088,31,22,0,1,1
840,34,041,CLARKSDALE,1,39.4800841,-89.2690071,31,22,0,1,1
840,34,042,ROSAMOND,1,39.3998674,-89.2049844,31,22,0,1,1
840,34,043,HUMPHREY,1,39.5535471,-89.4517437,31,22,0,1,1
840,34,044,FAIRLAND,1,39.8947071,-88.1036130,31,22,0,1,1
840,34,045,JANESVILLE,1,39.3671938,-88.2670255,31,22,0,1,1
840,34,046,BRADBURY,1,39.3149204,-88.1951760,31,22,0,1,1
840,34,047,HUMBOLDT,1,39.6153298,-88.3865649,31,22,0,1,1
840,34,048,MARTINSVILLE,1,39.3186070,-87.7777573,31,22,0,1,1
840,34,049,COLUMBIA,1,38.3851828,-90.2587326,31,22,0,1,1
840,34,050,MASCOUTAH LK,1,38.5256201,-89.8193422,31,22,0,1,1
840,34,051,JAMESTOWN,1,38.6981367,-89.5364836,31,22,0,1,1
840,34,052,ST MORGAN,1,38.6699717,-89.6602444,31,22,0,1,1
840,34,053,BEAUCOUP,1,38.3511978,-89.2943026,31,22,0,1,1
840,34,054,BRNT PRAIRIE,1,38.2481850,-88.2336720,31,24,0,1,1
840,34,055,MT VERNON,1,38.4401577,-88.9703208,31,22,0,1,1
840,34,056,OLNEY,1,38.7068800,-88.1676148,31,22,0,1,1
840,34,057,FLORA,1,38.6772904,-88.4287356,31,22,0,1,1
840,34,058,BIRDS,1,38.8352107,-87.7451035,31,24,0,1,1
840,34,059,PULASKI,1,37.2325914,-89.2352685,14,24,0,1,1
840,34,060,BREMEN,1,37.9708433,-89.7475091,14,24,0,1,1
840,34,061,BELKNAP,1,37.3198861,-88.9437782,14,24,0,1,1
840,34,062,DELWOOD,1,37.5997248,-88.5063589,14,24,0,1,1
840,34,063,BEAVERDAM LK,1,37.0730417,-88.5193033,14,24,0,1,1
840,34,064,ROBINSON,1,39.0052343,-87.7771751,31,22,0,1,1
840,34,065,SHANNON,1,42.1401616,-89.7648861,17,22,0,1,1
840,34,066,CALEDONIA,1,42.3994754,-88.9154674,16,22,0,1,1
840,34,067,SHERRARD,1,41.3410603,-90.5307719,32,22,0,1,1
840,34,068,TROY GROVE,1,41.4844552,-89.0833869,32,22,0,1,1
840,34,069,SENECA,1,41.3114360,-88.5903464,31,22,0,1,1
840,34,070,CAMP POINT,1,40.0572405,-91.1273048,31,22,0,1,1
840,34,071,DUNCAN MILLS,1,40.3045239,-90.1357207,31,22,0,1,1
840,34,072,GREENVIEW,1,40.0839936,-89.8249757,31,22,0,1,1
840,34,073,LE ROY,1,40.2822428,-88.7460735,31,22,0,1,1
840,34,074,ELDRED,1,39.2888385,-90.5506080,31,22,0,1,1
840,34,075,NILWOOD,1,39.3988002,-89.8313118,31,22,0,1,1
840,34,076,YALE,1,39.1055838,-88.0246848,31,22,0,1,1
840,34,077,YORK,1,39.1467916,-87.6692368,31,24,0,1,1
840,34,078,DARMSTADT,1,38.3201230,-89.7037028,31,22,0,1,1
840,34,079,BROWNVILLE,1,38.0393916,-88.2081104,31,24,0,1,1
840,34,080,SANDUSKY,1,37.2026548,-89.2742960,14,24,0,1,1
840,34,081,CAVE IN ROCK,1,37.4674888,-88.1644941,14,24,0,1,1
840,34,082,VILLAGE OF LAKEWOOD,1,42.2213310,-88.3993310,16,22,0,1,1
840,34,104,CHERRY VAL 2,1,42.1740585,-88.9445833,16,23,0,1,1
840,34,135,PAYSON,1,39.9258337,-91.3130559,31,22,0,1,1
840,34,301,LAKE GALENA,1,42.3972257,-90.2808839,17,23,0,1,1
840,34,302,LAKE SUMMERSET,1,42.4617907,-89.3817229,17,22,0,1,1
840,34,303,UNION,1,42.2186307,-88.5617669,16,22,0,1,1
840,34,304,KEITHSBURG,1,41.0847167,-90.9006359,32,22,0,1,1
840,34,305,STERLING,1,41.8306867,-89.6694319,32,22,0,1,1
840,34,306,YORKVILLE,1,41.5971421,-88.4356718,31,22,0,1,1
840,34,307,CLAYTON,1,40.0179525,-90.9316336,31,22,0,1,1
840,34,308,WAYNESVILLE,1,40.2639127,-89.1297627,31,22,0,1,1
840,34,309,GRIDLEY,1,40.7542777,-88.8718234,31,22,0,1,1
840,34,310,GRAPE CREEK,1,40.0813067,-87.5396719,31,22,0,1,1
840,34,311,EUBANKS,1,39.9614287,-91.3007819,31,22,0,1,1
840,34,312,CONCORD WEST,1,39.8173797,-90.4058819,31,22,0,1,1
840,34,313,HARRISTOWN,1,39.8529571,-89.0850451,31,22,0,1,1
840,34,314,ALLERTON PARK,1,39.9526337,-88.6689458,31,22,0,1,1
840,34,315,MARSHALL,1,39.4014967,-87.7061760,31,22,0,1,1
840,34,316,DUDLEYVILLE,1,38.8433817,-89.3901378,31,22,0,1,1
840,34,317,KELL,1,38.4982149,-88.8800235,31,22,0,1,1
840,34,318,ROYALTON,1,37.8620527,-89.0775209,31,24,0,1,1
840,34,319,KARNAK,1,37.2950124,-88.9472487,14,24,0,1,1
840,34,900,ATHENS,1,39.9548261,-89.7510457,31,22,0,1,3
840,35,001,GARY,0,41.6518167,-87.4486549,16,22,0,1,1
840,35,002,HEBRON,1,41.3297597,-87.2001879,16,22,0,1,1
840,35,003,SOUTH BEND,0,41.7272707,-86.2170269,16,23,0,1,1
840,35,004,KNOX,1,41.2735266,-86.6205339,16,23,0,1,1
840,35,005,KEWANNA,1,41.0254887,-86.2808379,16,23,0,1,1
840,35,006,MIDDLEBURY,1,41.7259077,-85.6760109,16,23,0,1,1
840,35,007,COLUMBIA CTY,1,41.0188097,-85.4900279,31,23,0,1,1
840,35,008,PACKERTOWN,0,41.1015477,-85.8354799,16,23,0,1,1
840,35,009,ELLIS,1,41.6024567,-84.9394079,16,23,0,1,1
840,35,010,FOWLER,1,40.6790779,-87.3633993,31,22,0,1,1
840,35,011,W LAFAYETTE,1,40.4076491,-87.0361216,31,22,0,1,1
840,35,012,MONTICELLO,1,40.7078507,-86.8139639,31,22,0,1,1
840,35,013,GALVESTON,1,40.5842651,-86.1842198,31,22,0,1,1
840,35,014,THORNTOWN,1,40.1495187,-86.6959256,31,22,0,1,1
840,35,015,TIPTON,0,40.2183267,-86.0561139,31,22,0,1,1
840,35,016,MIDDLETOWN,1,40.0330447,-85.5449749,31,22,0,1,1
840,35,017,MUNCIE,0,40.1346197,-85.3574209,31,22,0,1,1
840,35,018,SWAYZEE,1,40.5079491,-85.8445100,31,22,0,1,1
840,35,019,WABASH,1,40.8532797,-85.9044039,31,22,0,1,1
840,35,020,BERNE,1,40.7030618,-84.8534885,31,22,0,1,1
840,35,021,PIMENTO,1,39.3319867,-87.3743359,15,24,0,1,1
840,35,022,BRAZIL,1,39.5330205,-87.1438756,15,24,0,1,1
840,35,023,BELMONT,1,39.0791429,-86.3429849,14,24,0,1,1
840,35,024,FRIENDSWOOD,1,39.6400767,-86.2882699,31,22,0,1,1
840,35,025,JAMESTOWN,1,39.9080857,-86.5765829,31,22,0,1,1
840,35,026,SPENCER,1,39.2638847,-86.7031329,15,24,0,1,1
840,35,027,AZALIA,1,39.0836543,-85.9287299,15,24,0,1,1
840,35,028,SEXTON,1,39.6847217,-85.4688349,31,22,0,1,1
840,35,029,MILROY,1,39.4677041,-85.4421615,31,22,0,1,1
840,35,030,SHELBYVILLE,1,39.5621707,-85.7760939,31,22,0,1,1
840,35,031,BROOKVILLE,1,39.4938040,-84.9764184,31,22,0,1,1
840,35,032,WASHINGTON,1,38.6841567,-87.1287007,15,24,0,1,1
840,35,033,CUMBACK,1,38.5758877,-87.1850279,15,24,0,1,1
840,35,034,MILLERSBURG,1,38.0976637,-87.3919892,15,24,0,1,1
840,35,035,INDIAN SPGS,1,38.7744667,-86.7647789,14,24,0,1,1
840,35,036,CELESTINE,1,38.4150437,-86.8202889,14,24,0,1,1
840,35,037,CLEAR SPRING,1,38.9190517,-86.1929939,14,24,0,1,1
840,35,038,NEW PHILA,1,38.6631267,-85.9410399,14,24,0,1,1
840,35,039,CORYDON,1,38.2672943,-86.1463592,14,24,0,1,1
840,35,040,VEVAY,1,38.7795826,-85.0940693,15,24,0,1,1
840,35,041,SCOTTSBURG,1,38.6347156,-85.7471699,15,24,0,1,1
840,35,042,EVANSVILLE,1,37.9911389,-87.4410458,15,24,0,1,1
840,35,101,PORTAGE,0,41.5363017,-87.1973579,16,22,0,1,1
840,35,103,LAKEVILLE,1,41.6368887,-86.3655159,16,23,0,1,1
840,35,108,PACKERTOWN 2,1,41.1013504,-85.8354611,16,23,0,1,1
840,35,115,KOKOMO,1,40.2178547,-86.0560979,31,22,0,1,1
840,35,117,ANDERSON,1,40.1346467,-85.3574289,31,22,0,1,1
840,35,201,PORTAGE 2,1,41.5361624,-87.1967394,16,22,0,1,1
840,35,301,CROWN POINT,1,41.3911052,-87.3693435,16,22,0,1,1
840,35,302,LAPORTE,1,41.6367797,-86.8508149,16,23,0,1,1
840,35,303,LAGRANGE,1,41.7506020,-85.4765733,16,23,0,1,1
840,35,304,CUBA,1,41.0798684,-84.9237731,31,22,0,1,1
840,35,305,RENSSELAER,1,40.9699502,-87.0748779,31,22,0,1,1
840,35,306,FRANKFORT,1,40.1985767,-86.4502189,31,22,0,1,1
840,35,307,MONTPELIER,1,40.4066967,-85.2388079,31,22,0,1,1
840,35,308,DECATUR,1,40.8100197,-84.9562309,31,22,0,1,1
840,35,309,WALLACE,1,39.9820787,-87.3561447,31,22,0,1,1
840,35,310,PLAINFIELD,0,39.9455667,-86.3794639,31,22,0,1,1
840,35,311,NEW CASTLE,1,39.9464269,-85.0906911,31,22,0,1,1
840,35,312,WITTS STATION,1,39.6830387,-84.8521349,31,22,0,1,1
